GRAND_ID,RES_NAME,DAM_NAME,ADMIN_UNIT,STATE,STORAGE_CAP,USE_IRRI,USE_ELEC,USE_SUPP,USE_FCON,USE_RECR,USE_NAVI,USE_FISH,USE_PCON,USE_LIVE,USE_OTHR,MAIN_USE,LONGITUDE,LATITUDE,YEAR_RANGE,INFLOW_LENGTH,INFLOW_SOURCE,RELEASE_LENGTH,RELEASE_SOURCE,STORAGE_LENGTH,STORAGE_SOURCE,CATEGORY,MODULE_NUMBER,NSE,PBIAS
40,,Whatcom Lake Dam,Washington,WA,309718.84,,,,,Main,,,,,,Recreation,-122.4176,48.7621,"[2007, 2024]",6210,matching,,,2909,remote,Res_L,4,-0.246358348,-1.63811855
41,,Ross,Washington,WA,1058840, ,Main, ,Sec,Sec, ,Sec, , , ,Hydroelectricity,-121.0673,48.7325,"[1970, 2024]",19704,"matching, resopsus",14853,"hydroshare, resopsus",19328,"hydroshare, remote, resopsus",Res_R,2,0.2261,0.0228
42,,Diablo,Washington,WA,90155, ,Main, ,Sec,Sec, ,Sec, , , ,Hydroelectricity,-121.1303,48.7146,"[1970, 2020]",18157,resopsus,14854,"hydroshare, matching, resopsus",18129,"hydroshare, resopsus",Res_R,1,0.778,0.0045
43,,West Pass Dike,Washington,WA,233806.31,,Main,,,Sec,,Sec,,,,Hydroelectricity,-121.6882,48.6479,"[2016, 2023]",,,,,2909,remote,Res_M,1,,
44,,Lower Baker Dam,Washington,WA,138070.74,,Main,,,Sec,,,,,,Hydroelectricity,-121.7396,48.553,"[1980, 2024]",,,16403,matching,2909,remote,Res_R,1,0.953521109,-0.008822976
47,,Culmback,Washington,WA,95494.86,,Main,Sec,Sec,Sec,,,,,,Hydroelectricity,-121.6842,47.9765,"[1983, 2024]",,,13663,matching,2909,remote,Res_R,3,0.726083314,-0.049616116
48,,Chaplain Lake South Dam,Washington,WA,17835.69,,,Main,,,,,,,,Water supply,-121.8324,47.9479,"[1983, 2023]",,,535,matching,2909,remote,Res_M,4,,
49,Lake Chelan,Chelan Dam,Washington,WA,676134.64,,Main,,Sec,,,,,,,Hydroelectricity,-120.024,47.8397,"[1980, 2024]",16403,matching,16345,matching,,,Res_M,1,,
50,,Tolt Main Dam,Washington,WA,73412.78808,,Sec,Main,,,,,,,,Water supply,-121.6879,47.6948,"[1980, 2024]",1862,matching,16403,matching,2917,remote,Res_R,2,0.837464202,0.058620366
51,Upper Cushman,Cushman 1,Washington,WA,482779.59,,Main,,,Sec,,,,,,Hydroelectricity,-123.224,47.4229,"[2008, 2024]",1863,matching,5903,matching,,,Res_M,1,,
52,,Masonry Dam,Washington,WA,98066.24,,Main,,,,,,,,,Hydroelectricity,-121.7519,47.4128,"[1983, 2024]",3867,matching,8459,matching,2919,remote,Res_R,2,0.790120188,0.026633922
53,Youngs Lake,Youngs Lake Cascades Dam,Washington,WA,11155.13,,,Main,,,,,,,,Water supply,-122.1256,47.4062,"[2016, 2023]",,,,,2919,remote,Res_M,4,,
54,,Wynoochee,Washington,WA,102600.69,,Sec,Main,Sec,Sec,,Sec,,,,Water supply,-123.6046,47.3864,"[1980, 2024]",,,16385,"matching, resopsus",3014,"remote, resopsus",Res_R,3,0.822282739,-0.062861851
55,Keechelus Lake,Keechelus,Washington,WA,160880,Main, , , , , , , , , ,Irrigation,-121.3402,47.3237,"[1965, 2020]",20454,resopsus,20454,"hydroshare, resopsus",20454,"hydroshare, resopsus",Res_R,3,0.3509,0.0148
56,Howard Hanson Reservoir,Howard A. Hanson Dam,Washington,WA,77017, , , ,Main, , , , , , ,Flood control,-121.7838,47.2779,"[1980, 2024]",1378,usace,16195,"hydroshare, resopsus, usace",11947,"hydroshare, resopsus, usace",Res_R,1,-0.62,0.008
57,Kachess Lake,Kachess,Washington,WA,244672,Main, , , , , , , , , ,Irrigation,-121.2052,47.266,"[1965, 2023]",20454,resopsus,20454,"hydroshare, resopsus",21549,"hydroshare, remote, resopsus",Res_R,3,0.2988,0.0005
58,Cle Elum Lake,Cle Elum,Washington,WA,366704.4606,Main,,,,,,,,,,Irrigation,-121.0729,47.249,"[2016, 2023]",,,,,2791,remote,Res_M,4,,
59,,Lake Tapps Dike 2-B,Washington,WA,46680.04383,,Main,,,Sec,,,,,,Hydroelectricity,-122.1632,47.1914,"[2004, 2023]",,,,,5918,resopsus,Res_M,5,,
60,Bumping Lake,Bumping Lake,Washington,WA,37180,Main,Sec, ,Sec, , , , , , ,Irrigation,-121.3021,46.8688,"[1965, 2020]",20454,resopsus,20454,"hydroshare, resopsus",20454,"hydroshare, resopsus",Res_R,4,0.4822,0.0002
61,,Alder,Washington,WA,106019.49,,Main,,,Sec,,,,,,Hydroelectricity,-122.3117,46.8008,"[1980, 2024]",12629,matching,16403,matching,2922,remote,Res_R,1,0.828713084,-0.035532941
62,,Skookumchuck,Washington,WA,22723.06,,Main,Sec,,,,Sec,,,,Hydroelectricity,-122.717,46.7843,"[1980, 2024]",16403,matching,16401,matching,2922,remote,Res_R,1,0.978836506,-0.026211413
63,Rimrock,Tieton,Washington,WA,201640,Main, , , , , , , , , ,Irrigation,-121.1283,46.6548,"[1965, 2023]",20453,resopsus,20454,"hydroshare, resopsus",21541,"hydroshare, remote, resopsus",Res_R,4,0.5661,0.0223
64,,Mossyrock,Washington,WA,556061.53,,Main,,Sec,Sec,,,,,,Hydroelectricity,-122.4227,46.5348,"[1980, 2024]",16402,matching,,,2922,remote,Res_L,1,0.983068861,8.54E-16
65,,Mayfield,Washington,WA,76726.76,,Main,,,Sec,,,,,,Hydroelectricity,-122.5877,46.5037,"[1980, 2024]",,,16403,matching,2922,remote,Res_R,1,0.997726321,0.002782928
66,,Cowlitz Falls Dam,Washington,WA,14998.19,,Main,,,,,,,,,Hydroelectricity,-122.1003,46.4657,"[1980, 2024]",5180,matching,16402,matching,2890,remote,Res_R,1,0.994234428,-0.003678867
67,,Mt. St. Helens Sediment Retention Structure,Washington,WA,24769.68,,,,Main,,,,,,,Flood control,-122.5469,46.3631,"[1982, 2024]",136,matching,10649,matching,2922,remote,Res_R,1,0.982899061,0.014394811
68,,Swift 1,Washington,WA,424549.78,,Main,,Sec,Sec,,,,,,Hydroelectricity,-122.1963,46.0619,"[2016, 2023]",,,,,2917,remote,Res_M,3,,
69,,Youngs River Reservoir,Oregon,OR,332.95,,,Main,,,,,,,,Water supply,-123.3682,46.0331,,,,,,,,Res_M,3,,
70,,Yale,Washington,WA,131700.85,,Main,,Sec,Sec,,Sec,,,,Hydroelectricity,-122.3338,45.9659,"[2016, 2023]",,,,,2917,remote,Res_M,3,,
71,Bull Run Reservoir,Bull Run Reservoir Dam 1,Oregon,OR,26176.56,,Sec,Main,,,,,,,,Water supply,-122.0807,45.4845,"[1980, 2024]",16403,matching,,,2914,remote,Res_R,1,0.980687418,0.005518263
72,Scoggins Reservoir,Scoggins Reservoir,Oregon,OR,54329.93,Main,,,,,,,,,,Irrigation,-123.1998,45.4745,"[1976, 2023]",,,9771,matching,17257,"remote, resopsus",Res_R,2,0.602905855,0.003677155
73,Bull Run Lake,Bull Run Lake Dam,Oregon,OR,22674.4797,,,Main,,,,,,,,Water supply,-121.8429,45.4596,"[1992, 2024]",,,11744,matching,2850,remote,Res_R,5,0.865863021,-0.007217158
74,Bull Run Reservoir,Bull Run Reservoir Dam 2,Oregon,OR,13869.03,,Sec,Main,,,,,,,,Water supply,-122.1474,45.4479,"[1980, 2024]",,,16402,matching,2914,remote,Res_R,1,0.994140582,0.006009595
75,Barney Reservoir,Trask River Dam,Oregon,OR,20024.61,,,Main,,,,,,,,Water supply,-123.3964,45.446,"[1996, 2024]",,,10240,matching,,,Res_M,2,,
76,Lake Oswego,Lake Oswego,Oregon,OR,9809.63,,Main,,,Sec,,,,,,Hydroelectricity,-122.6707,45.4109,"[2016, 2023]",,,,,2922,remote,Res_M,1,,
77,North Fork,North Fork,Oregon,OR,14025.31,,Main,,,Sec,,,,,,Hydroelectricity,-122.2781,45.244,"[2016, 2023]",,,,,2914,remote,Res_M,1,,
78,Clear Lake,Wasco,Oregon,OR,10354,Main, , , , , , , , , ,Irrigation,-121.6909,45.1758,"[1975, 2020]",,,6958,"hydroshare, resopsus",13652,"hydroshare, resopsus",Res_R,2,0.6611,0.0288
79,Timothy Lake,Timothy Lake,Oregon,OR,64832.76,,Main,,,Sec,,,,,,Hydroelectricity,-121.8045,45.1152,"[1980, 2024]",,,16403,matching,2876,remote,Res_R,3,0.904136634,-0.014839939
80,Detroit Lake,Detroit,Oregon,OR,455139,Sec,Main, ,Sec,Sec, , , , ,Sec,Hydroelectricity,-122.2496,44.7204,"[1970, 2024]",2193,"usace, matching",18997,"hydroshare, resopsus, usace",18713,"hydroshare, resopsus, usace",Res_R,3,0.52,-0.009
81,Simtustus Lake,Pelton,Oregon,OR,13678.82,,Main,,,Sec,,,,,,Hydroelectricity,-121.2311,44.6927,"[1980, 2024]",1309,matching,16402,matching,2825,remote,Res_R,1,0.994811052,-0.000518255
82,Billy Chinook Lake,Round Butte,Oregon,OR,322188.71,,Main,,,Sec,,,,,,Hydroelectricity,-121.2811,44.6014,"[1980, 2024]",16402,matching,16402,matching,2883,remote,Res_R,1,0.970619073,-0.005190679
83,Green Peter Lake,Green Peter,Oregon,OR,432383.88,Sec,Sec,,Main,Sec,,,,,Sec,Flood control,-122.5474,44.4519,"[1970, 2024]",638,matching,732,usace,18002,resopsus,Res_L,4,-0.146442675,-0.563892623
84,Suttle Lake,Suttle Lake,Oregon,OR,14268.51,,,,,Sec,,Main,,,,Other,-121.7314,44.4234,"[1980, 2023]",,,4291,matching,2862,remote,Res_M,2,,
85,Foster Lake,Foster,Oregon,OR,60092,Sec,Main, ,Sec,Sec, , , , ,Sec,Hydroelectricity,-122.6688,44.4188,"[1970, 2024]",732,usace,18045,"hydroshare, resopsus, usace",18759,"hydroshare, resopsus, usace",Res_R,1,0.96,-0.001
86,Smith Reservoir,Smith,Oregon,OR,15481.87,,Main,,,Sec,,,,,,Hydroelectricity,-122.0478,44.308,"[1980, 2024]",16394,matching,2638,matching,2905,remote,Res_R,3,0.912103528,-0.034415745
87,Ochoco,Ochoco,Oregon,OR,46370,Main, , ,Sec,Sec, , , , , ,Irrigation,-120.7229,44.2988,"[1965, 2023]",,,20454,"hydroshare, resopsus",15019,"hydroshare, remote, resopsus",Res_R,3,0.47,0.004
88,Blue River Lake,Blue River Dam,Oregon,OR,86265, , , ,Main,Sec, , , , , ,Flood control,-122.3288,44.1746,"[1974, 2024]",9404,"usace, matching",17585,"hydroshare, resopsus, usace",17171,"hydroshare, resopsus, usace",Res_R,3,0.52,0.012
89,South Fork Mckenzie River,Cougar,Oregon,OR,215879,Sec,Main,Sec,Sec,Sec, , , , ,Sec,Hydroelectricity,-122.2412,44.1271,"[1971, 2024]",11653,matching,18983,"hydroshare, resopsus, usace",17965,"hydroshare, resopsus",Res_R,4,0.32,-0.001
90,Fern Ridge Lake,Fern Ridge,Oregon,OR,103180, , , ,Main,Sec, , , , , ,Flood control,-123.2996,44.1188,"[1975, 2024]",,,17534,"hydroshare, resopsus, usace",17208,"hydroshare, resopsus, usace",Res_R,3,0.57,-0.001
91,Prineville Reservoir,Arthur R. Bowman,Oregon,OR,177883.4,Main,,,Sec,,,,,,,Irrigation,-120.7848,44.1116,"[1973, 2020]",644,matching,4290,matching,17259,resopsus,Res_R,3,0.818604064,-0.092455473
92,Fall Creek Lake,Fall Creek,Oregon,OR,123095,Sec,Sec,Sec,Main,Sec, , , , ,Sec,Flood control,-122.7554,43.9454,"[1980, 2024]",1368,"usace, matching",16403,"hydroshare, matching, resopsus",13612,"hydroshare, resopsus",Res_R,4,0.49,0.014
93,Dexter Lake,Dexter,Oregon,OR,53100.08,,Main,,,Sec,,,,,,Hydroelectricity,-122.8052,43.9221,"[1961, 2024]",731,usace,22647,"usace, resopsus",21657,resopsus,Res_R,1,0.986527235,-0.008465605
94,Lookout Point Lake,Lookout Point,Oregon,OR,444477,Sec,Sec, ,Main,Sec, , , , ,Sec,Flood control,-122.7504,43.9146,"[1971, 2024]",16403,matching,5353,"hydroshare, usace",18737,"hydroshare, resopsus, usace",Res_R,4,0.67,-0.023
95,Siltcoos Lake,Siltcoos Lake,Oregon,OR,63424.70582,,,,,,,,,,Main,Other,-124.1126,43.8841,"[2016, 2023]",,,,,2921,remote,Res_M,1,,
96,Tahkenitch Lake,Tahkenitch Lake,Oregon,OR,18642.08636,,,,,,,,,,Main,Other,-124.1473,43.8061,"[2016, 2023]",,,,,2921,remote,Res_M,1,,
97,Dorena Lake,Dorena,Oregon,OR,77958,Sec, , ,Main,Sec, , , , ,Sec,Flood control,-122.9529,43.7829,"[1974, 2024]",16403,"usace, matching",18290,"hydroshare, matching, resopsus",16999,"hydroshare, resopsus, usace",Res_R,2,-0.36,-0.025
98,Crane Prairie,Crane Prairie,Oregon,OR,89367.09,Main,,,,,,,,,,Irrigation,-121.7938,43.7604,"[1965, 2020]",52,matching,4290,matching,13919,resopsus,Res_R,3,0.773508166,0.020766196
99,Cottage Grove Lake,Cottage Grove,Oregon,OR,32537,Sec, , ,Main,Sec, , , , ,Sec,Flood control,-123.0579,43.7154,"[1974, 2024]",731,usace,18289,"hydroshare, matching, resopsus",17870,"hydroshare, remote, resopsus, usace",Res_R,4,0.27,-0.021
100,Hills Creek Lake,Hills Creek,Oregon,OR,352761,Sec,Sec,Sec,Main,Sec, , , , ,Sec,Flood control,-122.4212,43.7088,"[1963, 2024]",638,matching,22612,"hydroshare, matching, resopsus",22197,"hydroshare, remote, resopsus",Res_R,3,0.52,0
101,Wickiup Reservoir,Wickiup Reservoir,Oregon,OR,203999.71,Main,,,,,,,,,,Irrigation,-121.6902,43.6812,"[1965, 2023]",4290,matching,4290,matching,15187,"remote, resopsus",Res_R,2,0.816235013,-0.020240027
102,Crescent Lake,Crescent Lake,Oregon,OR,167373.22,Main,,,,,,,,,,Irrigation,-121.9716,43.5005,"[1965, 2020]",,,4290,matching,14125,resopsus,Res_R,3,0.837726946,0.011560386
103,,Lemolo 1,Oregon,OR,8577.16,,Main,,,Sec,,,,,,Hydroelectricity,-122.1925,43.3215,"[2003, 2023]",,,4749,matching,2825,remote,Res_M,1,,
104,Ben Irving Reservoir,Berry Creek Dam,Oregon,OR,13578.65,Sec,,Main,,,,,,,,Water supply,-123.5566,43.0436,,,,,,,,Res_M,2,,
105,Thompson Valley Reservoir,Thompson Valley Reservoir,Oregon,OR,29442,Main,,,,,,,,,,Irrigation,-121.0861,42.9592,,,,,,,,Res_M,3,,
106,Galesville Reservoir,Galesville Reservoir,Oregon,OR,34728.25,Sec,,Sec,,Main,,Sec,,,,Recreation,-123.1768,42.8476,"[1980, 2024]",14298,matching,16402,matching,,,Res_M,3,,
107,Lost Creek Lake,William L. Jess,Oregon,OR,467976, ,Sec,Sec,Main,Sec, , , , , ,Flood control,-122.6729,42.6746,"[1977, 2024]",5389,"usace, matching",11264,"hydroshare, resopsus, usace",16485,"hydroshare, resopsus, usace",Res_R,5,0.73,0
108,Four Mile Lake,Four Mile Lake Dam,Oregon,OR,17289.27,Main,,Sec,,,,,,,,Irrigation,-122.2445,42.4568,"[1965, 2023]",,,,,10752,resopsus,Res_M,1,,
109,Cottonwood Reservoir,Cottonwood Reservoir,Oregon,OR,11506.24586,Main,,,,,,,,,,Irrigation,-120.5097,42.2447,"[1980, 2023]",,,638,matching,2791,remote,Res_M,2,,
110,Upper Klamath Lake,Link River Diversion,Oregon,OR,3897237.652,Sec,Main,,,,,,,,,Hydroelectricity,-121.8115,42.2388,"[1980, 2023]",,,1368,matching,2678,remote,Res_M,1,,
111,Howard Prairie Lake,Howard Prairie,Oregon,OR,64792.99,Main,Sec,,,Sec,,,,,,Irrigation,-122.3783,42.2176,"[1966, 2023]",,,5387,resopsus,21051,"remote, resopsus",Res_L,4,0.046270249,-0.561821094
112,Gerber,Gerber,Oregon,OR,127318.1429,Main,,,,,,,,,,Irrigation,-121.1256,42.2006,"[2016, 2023]",,,,,2843,remote,Res_M,2,,
113,Hyatt,Hyatt Dam,Oregon,OR,16947.96,Main,Sec,,,Sec,,,,,,Irrigation,-122.4674,42.1732,"[1966, 2023]",,,7063,resopsus,20865,"remote, resopsus",Res_R,3,0.717657339,-0.040220906
114,Emigrant Lake,Emigrant,Oregon,OR,39397,Main, , ,Sec,Sec, , , , , ,Irrigation,-122.6054,42.1612,"[1966, 2023]",9931,resopsus,12539,"hydroshare, matching, resopsus",20501,"hydroshare, remote, resopsus",Res_R,4,0.19,-0.029
115,Drews Reservoir,Drews Reservoir,Oregon,OR,95914.36403,Main,,,,,,,,,,Irrigation,-120.6191,42.1214,"[1980, 2023]",,,638,matching,2829,remote,Res_M,2,,
116,Applegate Reservoir,Applegate Dam,Oregon,OR,82808,Main, , ,Sec,Sec, , , , , ,Irrigation,-123.1154,42.0546,"[1980, 2024]",2190,matching,16403,"hydroshare, matching, resopsus",12326,"hydroshare, remote, resopsus",Res_R,1,0.63,0.002
117,Copco Lake,Copco 1,California,CA,39707.44,,Main,,,Sec,,Sec,,,,Hydroelectricity,-122.3299,41.9812,"[2003, 2023]",,,884,matching,2905,remote,Res_M,1,,
118,,Iron Gate,California,CA,31608.86,,Sec,,,Sec,,,,,Main,Other,-122.4345,41.9358,"[1980, 2024]",,,16403,matching,2905,remote,Res_R,1,0.998570607,9.94E-05
119,Clear Lake Reservoir,Clear Lake Dike,California,CA,3050661.133,Main,,,,,,,,,,Irrigation,-121.0778,41.9256,"[1996, 2023]",,,,,8400,resopsus,Res_M,2,,
120,,Big Sage,California,CA,49560.9,Main,,,,,,,,,,Irrigation,-120.6268,41.5803,"[2016, 2023]",,,,,2861,remote,Res_M,3,,
121,Lake Shastina,Shasta River,California,CA,39184.64744,Main,,,,,,,,,,Irrigation,-122.376,41.539,"[2016, 2023]",,,,,2883,remote,Res_M,3,,
122,Lake Siskiyou,Box Canyon,California,CA,12059.55073,,Sec,,Main,Sec,,,,,,Flood control,-122.3286,41.2828,"[1980, 2023]",,,2829,matching,2836,remote,Res_M,1,,
123,,West Valley,California,CA,23024.25,Main,,,,,,,,,,Irrigation,-120.4115,41.2213,,,,,,,,Res_M,1,,
124,,McCloud,California,CA,26528.15,Sec,,Main,,,,,Sec,,Sec,Water supply,-122.0731,41.1322,"[1980, 2023]",15951,matching,14533,matching,2800,remote,Res_R,3,0.412125425,-0.036253922
125,,Tule Lake,California,CA,39481.72,Main,,,,,,,,,,Irrigation,-120.3694,41.0808,,,,,,,,Res_M,3,,
126,,Iron Canyon,California,CA,22265.91,Sec,,Main,,,,,Sec,,Sec,Water supply,-121.9844,41.0444,"[1980, 2023]",,,15700,matching,2768,remote,Res_L,2,2.36E-05,0.003265029
127,Lake Britton,Pit 3,California,CA,19490.34,Sec,,Main,,,,,Sec,,Sec,Water supply,-121.6719,41.0228,"[2003, 2023]",3684,matching,4016,matching,2889,remote,Res_R,1,0.921257002,-0.022932911
128,Dodge Reservoir,Red Rock 1,California,CA,9971.77,Main,,,,,,,,,,Irrigation,-120.1367,40.9695,,,,,,,,Res_M,2,,
129,,Pit 7,California,CA,10417.62473,Sec,,Main,,,,,Sec,,Sec,Water supply,-121.9892,40.849,"[1980, 2023]",4177,matching,15979,matching,2827,remote,Res_R,1,0.998161192,-8.40E-05
130,Heath Reservoir,Heath Dam,California,CA,10462.60607,Main,,,,,,,,,,Irrigation,-120.7856,40.8397,"[2016, 2023]",,,,,2861,remote,Res_M,3,,
131,Clair Engle Lake,Trinity,California,CA,2496779,Main,Sec, ,Sec,Sec, , , , , ,Irrigation,-122.7621,40.8038,"[1965, 2024]",20403,resopsus,21879,"hydroshare, matching, resopsus",20633,"hydroshare, remote, resopsus",Res_R,4,0.4088,0.0574
132,Shasta Lake,Shasta,California,CA,4536624,Main,Sec,Sec, ,Sec,Sec, , , , ,Irrigation,-122.4229,40.7204,"[1945, 2023]",28762,"matching, resopsus",15614,"hydroshare, matching",13328,"hydroshare, remote, resopsus",Res_R,3,0.4825,-0.0055
133,Whiskeytown,Whiskeytown,California,CA,258552, ,Main, , , , , , , , ,Hydroelectricity,-122.5406,40.5994,"[1963, 2023]",21732,"matching, resopsus",14669,"hydroshare, resopsus",21975,"hydroshare, remote, resopsus",Res_R,2,0.82,-0.003
134,,Mccoy Flat,California,CA,24838.48505,Main,,,,,,,,,,Irrigation,-120.9427,40.4539,"[2016, 2023]",,,,,2793,remote,Res_M,1,,
135,Ruth Lake,Robert W. Matthews,California,CA,479206.78,,,,,Main,,,,,,Recreation,-123.4322,40.3673,"[1980, 2024]",16232,matching,15704,matching,3666,resopsus,Res_R,2,0.866248559,-0.028511501
136,Mountain Meadows Reservoir,Indian Ole,California,CA,89728.90413,,,Main,,,,,Sec,,Sec,Water supply,-121.023,40.2822,"[2001, 2023]",,,,,7196,resopsus,Res_M,2,,
137,,Antelope,California,CA,27695.57751,,,,,Main,,,,,,Recreation,-120.6059,40.1817,"[1980, 2023]",,,273,matching,11749,resopsus,Res_M,2,,
138,Canyon,Lake Almanor,California,CA,8918424.28,Main,,,,,,,,,,Irrigation,-121.0878,40.1748,"[1980, 2023]",,,15979,matching,13281,"remote, resopsus",Res_R,4,0.586786901,0.069773664
139,,Butt Valley,California,CA,960498.71,Main,,,,,,,,,,Irrigation,-121.1448,40.1159,"[1980, 2023]",15704,matching,638,matching,13511,"remote, resopsus",Res_L,2,0.000612714,-0.330705136
140,Bucks Lake,Bucks Storage,California,CA,955537.15,Main,,,,,,,,,,Irrigation,-121.2013,39.8973,"[1985, 2023]",,,10693,matching,13495,"remote, resopsus",Res_R,2,0.324500876,0.18935009
141,,Frenchman,California,CA,59153.67405,Main,,,,,,,,,,Irrigation,-120.1912,39.8944,"[1980, 2023]",,,273,matching,11714,resopsus,Res_M,3,,
142,Lake Davis,Grizzly Valley,California,CA,94863.14956,,,,,Main,,,,,,Recreation,-120.4779,39.8852,"[1980, 2023]",,,273,matching,11485,resopsus,Res_M,4,,
143,,Paradise,California,CA,10479.91861,Main,,,,,,,,,,Irrigation,-121.5771,39.8528,"[1980, 2023]",,,2099,matching,2882,remote,Res_M,2,,
144,Black Butte Lake,Black Butte Dam,California,CA,146812,Sec,Sec, ,Main,Sec, , , , , ,Flood control,-122.3412,39.8162,"[1985, 2023]",8940,resopsus,9275,"hydroshare, resopsus",12268,"hydroshare, remote, resopsus",Res_R,3,0.6243,-0.0202
145,,Little Grass Valley,California,CA,97999.8,Main,,,,,,,,,,Irrigation,-121.0178,39.7241,"[1980, 2023]",,,15979,matching,13622,"remote, resopsus",Res_R,3,0.722864818,0.032612614
146,Stony Gorge,Stony Gorge,California,CA,51177.06884,Main,Sec,Sec,,Sec,,,,,,Irrigation,-122.5305,39.5854,"[1980, 2023]",,,1094,matching,1178,resopsus,Res_M,2,,
147,,Sly Creek,California,CA,339065.31,Main,,,,,,,,,,Irrigation,-121.1137,39.5826,"[1980, 2023]",,,15979,matching,13621,"remote, resopsus",Res_R,2,0.577728019,0.200682432
148,Lake Oroville,Oroville,California,CA,3578367,Sec,Sec,Sec,Main,Sec, , , , , ,Flood control,-121.4829,39.5412,"[1985, 2023]",9376,resopsus,12212,"hydroshare, resopsus",13437,"hydroshare, remote, resopsus",Res_R,2,0.5223,-0.0085
149,,Thermalito Forebay,California,CA,13945.11708,,Main,,,Sec,,,,,,Hydroelectricity,-121.6262,39.5157,"[1980, 2023]",,,11595,matching,2896,remote,Res_M,1,,
150,,Jackson Meadows,California,CA,51430.62,Main,,,,,,,,,,Irrigation,-120.5545,39.5086,"[1980, 2023]",,,2829,matching,2814,remote,Res_M,3,,
151,Stampede,Stampede,California,CA,254499.84,,,,Main,Sec,,Sec,,,,Flood control,-120.1068,39.4738,"[1980, 2023]",836,matching,14976,resopsus,11480,"remote, resopsus",Res_R,3,0.704737037,-0.072527079
152,,Thermalito Afterbay,California,CA,73362.23,Sec,Sec,Main,,Sec,,,,,,Water supply,-121.6448,39.4571,"[1980, 2023]",11595,matching,15977,matching,9640,"remote, resopsus",Res_R,1,0.906597868,-0.013481662
153,,Independence,California,CA,18300, , ,Main, , , , , , ,Sec,Water supply,-120.2907,39.4506,"[1980, 2024]",,,16403,"hydroshare, matching, resopsus",11740,"hydroshare, resopsus",Res_R,3,0.24,0.003
154,Bowman Lake,Bowman,California,CA,52565.15,Main,,,,,,,,,,Irrigation,-120.6515,39.4492,"[1980, 2023]",2399,matching,15979,matching,2862,remote,Res_R,4,0.672398551,-0.127412149
155,,French Lake,California,CA,17516.09485,Main,Sec,Sec,,Sec,,,,,,Irrigation,-120.5387,39.4196,"[1989, 2023]",,,1661,matching,2788,remote,Res_M,4,,
156,Lake Pillsbury,Scott,California,CA,75401.17,,,Main,,,,,Sec,,Sec,Water supply,-122.9551,39.41,"[1980, 2023]",,,15979,matching,6107,"remote, resopsus",Res_R,3,0.714321003,0.16975552
157,Boca,Boca,California,CA,40870,Main,Sec, , , , , , , , ,Hydroelectricity,-120.0957,39.3914,"[1980, 2024]",,,16403,"hydroshare, matching, resopsus",12320,"hydroshare, remote, resopsus",Res_R,2,0.76,-0.016
158,Bullards Bar,New Bullards Bar,California,CA,972222.43,Main,,,,,,,,,,Irrigation,-121.1426,39.3935,"[1985, 2020]",2160,resopsus,2514,resopsus,10876,resopsus,Res_R,6,0.663882569,-0.032627809
159,,Lake Fordyce,California,CA,48310.76,,,Main,,,,,Sec,,Sec,Water supply,-120.4961,39.3805,"[1980, 2023]",,,15979,matching,2791,remote,Res_R,3,0.889336422,-0.009405586
160,Prosser Creek,Prosser Creek,California,CA,33700,Sec, , ,Main,Sec, , , , , ,Flood control,-120.1411,39.3785,"[1980, 2023]",,,14973,"hydroshare, resopsus",8806,"hydroshare, remote, resopsus",Res_R,2,0.3,-0.025
161,,East Park,California,CA,52510.69172,Main,,Sec,,Sec,,,,,,Irrigation,-122.5104,39.3604,"[2001, 2023]",,,,,7150,resopsus,Res_M,3,,
162,Spaulding Main,Lake Spaulding,California,CA,73878.65,Sec,,Main,,,,,Sec,,Sec,Water supply,-120.6421,39.3275,"[1986, 2023]",,,13515,matching,2878,remote,Res_R,2,0.790264625,-0.028257025
163,Martis Creek Lake,Martis Creek Dam,California,CA,16844.99,,,,Main,Sec,,,,,,Flood control,-120.1139,39.326,"[1980, 2024]",9880,"usace, resopsus",11453,"usace, matching",11677,"remote, usace, resopsus",Res_R,1,0.903284944,-0.03782968
164,Merle Collins,Virginia Ranch,California,CA,62050.18671,Main,,,,,,,,,,Irrigation,-121.3115,39.3242,"[1980, 2023]",,,277,matching,2896,remote,Res_M,3,,
165,,Donner Lake,California,CA,12800,Main, , , , , , , , , ,Water supply,-120.241,39.3239,"[1980, 2024]",606,matching,16403,"hydroshare, matching, resopsus",11684,"hydroshare, resopsus",Res_R,2,0.42,0
166,,Lake Valley,California,CA,14510.14,Main,,,,,,,,,,Irrigation,-120.5973,39.3011,"[1980, 2023]",,,15979,matching,8875,resopsus,Res_R,3,0.74204393,-0.384534186
167,,Scotts Flat,California,CA,33690.54048,Main,,,,,,,,,,Irrigation,-120.9299,39.2736,"[2016, 2023]",,,,,2914,remote,Res_M,4,,
168,Harry L. Englebright Lake,Harry L. Englebright Dam,California,CA,79064, ,Sec, , ,Sec, , , , ,Main,Other,-121.2696,39.2412,"[1980, 2021]",8815,resopsus,14519,"hydroshare, resopsus",10943,"hydroshare, resopsus",Res_R,1,0.9777,-0.0012
169,Lake Mendocino,Coyote Valley Dam,California,CA,110680, ,Sec,Sec,Main,Sec, , , , , ,Flood control,-123.181,39.1975,"[1980, 2021]",8914,resopsus,14976,"hydroshare, resopsus",11179,"hydroshare, resopsus",Res_R,1,0.79,-0.015
170,Lake Tahoe,Lake Tahoe,California,CA,39970651.98,Main,,,,,,,,,,Irrigation,-120.1418,39.161,"[1980, 2024]",,,16403,matching,2910,remote,Res_R,3,0.810631235,-0.03062242
171,,Rollins,California,CA,20534.41,Sec,Sec,Main,,Sec,,,,,,Water supply,-120.9543,39.1373,"[1986, 2023]",,,13515,matching,2905,remote,Res_R,1,0.989228128,0.00319115
172,French Meadows Reservoir,L.L. Anderson,California,CA,135980.08,Main,,,,,,,,,,Irrigation,-120.4682,39.1104,"[1980, 2023]",,,15979,matching,10083,"remote, resopsus",Res_R,2,0.451516414,0.228477304
173,,Indian Valley,California,CA,1239914.19,Main,Sec,Sec,Sec,Sec,,Sec,,,,Irrigation,-122.5359,39.0821,"[1983, 2024]",,,13465,matching,10836,"remote, resopsus",Res_R,2,0.775072531,0.024553778
174,Hell Hole Reservoir,Lower Hell Hole,California,CA,215177.82,Main,,,,,,,,,,Irrigation,-120.4073,39.0611,"[1980, 2023]",,,15979,matching,10079,"remote, resopsus",Res_R,4,0.759864461,-0.24551792
175,,Camp Far West,California,CA,61234.91,Main,,,,,,,,,,Irrigation,-121.3145,39.0521,"[1989, 2023]",,,12053,matching,2896,remote,Res_R,2,0.957470905,-0.059357696
176,,Loon Lake,California,CA,323528.8048,,,Main,,,Sec,,Sec,,Sec,Water supply,-120.3094,39.0013,"[1988, 2023]",,,,,10216,resopsus,Res_M,3,,
177,Stumpy Meadows Reservoir,Mark Edson,California,CA,20000.29,Main,,,,,,,,,,Irrigation,-120.602,38.902,"[1980, 2008]",10519,matching,10519,matching,1576,resopsus,Res_L,1,1,7.09E-16
178,,Union Valley,California,CA,362490.05,,,,,Main,,,,,,Recreation,-120.4393,38.8679,"[1986, 2023]",,,10592,matching,11180,"remote, resopsus",Res_R,2,0.722077339,-0.056809897
179,,Ice House,California,CA,323553.13,,,,,Main,,,,,,Recreation,-120.3616,38.8242,"[1980, 2023]",1678,resopsus,15978,matching,10232,resopsus,Res_L,4,0.019157245,-0.133924225
180,Lake Sonoma,Warm Springs Dam,California,CA,341632, ,Sec,Sec,Main,Sec, , , , , ,Flood control,-123.0121,38.7204,"[1981, 2021]",,,14293,"hydroshare, matching, resopsus",10882,"hydroshare, resopsus",Res_R,3,0.5865,0.0028
181,Jekinson Lake,Sly Park,California,CA,43352.24092,Main,,Sec,,Sec,,,,,,Irrigation,-120.5687,38.7191,"[1981, 2023]",,,10966,matching,2879,remote,Res_M,3,,
182,Folsom Lake,Folsom,California,CA,970487,Main,Sec,Sec,Sec,Sec, , , , , ,Irrigation,-121.1579,38.7121,"[1955, 2024]",21125,resopsus,16403,"hydroshare, matching, resopsus",24397,"hydroshare, remote, resopsus",Res_R,2,0.6232,-0.01
183,Twin Lake,Caples Lake,California,CA,31377.02524,,,Main,,,,,Sec,,Sec,Water supply,-120.0479,38.7062,"[1980, 2023]",,,4656,matching,8143,resopsus,Res_M,2,,
184,,Lower Bear,California,CA,60271.51,,Main,,,,,,,,,Hydroelectricity,-120.2545,38.5371,"[1987, 2023]",,,11406,matching,2830,remote,Res_R,4,0.894467428,-0.03122754
185,Lake Berryessa,Monticello,California,CA,1694986,Main, ,Sec,Sec,Sec, , , , , ,Irrigation,-122.1079,38.5146,"[1957, 2024]",,,16403,"hydroshare, matching",24456,"hydroshare, remote, resopsus",Res_R,4,0.9314,0.0382
186,,Salt Springs,California,CA,536369.34,Sec,,Main,,,,,Sec,,Sec,Water supply,-120.2137,38.4989,"[1980, 2023]",,,15341,matching,10634,"remote, resopsus",Res_R,2,0.705795113,-0.025015077
187,Hennessey,Conn Creek,California,CA,36347.28734,Main,,,,,,,,,,Irrigation,-122.3801,38.4869,"[2016, 2023]",,,,,2896,remote,Res_M,3,,
188,,Lake Curry,California,CA,10093.94724,Sec,,Main,,,Sec,,,,Sec,Water supply,-122.1244,38.3581,"[2016, 2023]",,,,,2896,remote,Res_M,4,,
189,Lake Amador,Jackson Creek,California,CA,7625.37,Main,,,,,,,,,,Irrigation,-120.8882,38.3046,"[2016, 2023]",,,,,2919,remote,Res_M,6,,
190,,Pardee,California,CA,1896903.04,Sec,,Main,,,Sec,,Sec,,Sec,Water supply,-120.8506,38.2579,"[1980, 2023]",15979,"matching, resopsus",8208,resopsus,11282,"remote, resopsus",Res_L,5,0.540530487,-0.062558259
191,,Camanche,California,CA,420049.05,,,Main,Sec,,Sec,Sec,,,Sec,Water supply,-121.0225,38.2226,"[1980, 2023]",8851,resopsus,15979,"matching, resopsus",11331,"remote, resopsus",Res_R,1,0.813778302,-0.04491753
192,,Beardsley,California,CA,97813, ,Main, , , , , , , , ,Hydroelectricity,-120.0738,38.2079,"[1980, 2023]",2922,matching,14518,"hydroshare, resopsus",16021,"hydroshare, remote, resopsus",Res_R,2,0.7715,-0.0066
193,New Hogan Lake,New Hogan Dam,California,CA,311058,Sec, , ,Main,Sec, , , , , ,Flood control,-120.8129,38.1538,"[1980, 2023]",8852,resopsus,13291,"hydroshare, matching, resopsus",12217,"hydroshare, remote, resopsus",Res_R,3,0.8011,0.0222
194,,Soulajule,California,CA,8479.99,Main,,,,,,,,,,Irrigation,-122.7826,38.1506,"[1983, 2024]",,,15034,matching,2886,remote,Res_R,2,0.954588932,-0.22914671
195,Nicasio,Seeger,California,CA,9911.33,Sec,,Main,,,Sec,,,,Sec,Water supply,-122.7534,38.0781,"[1982, 2024]",,,15318,matching,2887,remote,Res_R,1,0.953966672,-0.02204226
196,,Salt Springs Valley,California,CA,12744.79639,Main,,,,,,,,,,Irrigation,-120.7604,38.0313,"[2016, 2023]",,,,,2905,remote,Res_M,2,,
197,Kent Lake,Peters,California,CA,8988.5,,,Main,,,Sec,,,,Sec,Water supply,-122.7047,37.9963,"[1982, 2024]",,,15318,matching,,,Res_M,4,,
198,New Melones,New Melones,California,CA,2367876,Main,Sec, ,Sec,Sec, ,Sec, , , ,Irrigation,-120.5246,37.9496,"[1980, 2023]",9686,resopsus,14629,"hydroshare, matching, resopsus",13412,"hydroshare, remote, resopsus",Res_R,3,0.6673,0.0255
199,,Jamestown Mines,California,CA,1283.52,Sec,,Main,,,Sec,,,,Sec,Water supply,-120.4446,37.9453,"[2016, 2023]",,,,,2771,remote,Res_M,5,,
200,,San Pablo,California,CA,28210.42,,,Main,,,Sec,,,,Sec,Water supply,-122.2591,37.9426,"[2016, 2023]",,,,,2896,remote,Res_M,2,,
201,,Alpine,California,CA,4140.311291,Sec,,Main,,,Sec,,,,Sec,Water supply,-122.638,37.9392,"[2019, 2020]",,,,,284,"resopsus,remote",Res_M,5,,
202,,Briones,California,CA,35975.83,Sec,,Main,,,Sec,,,,Sec,Water supply,-122.2093,37.9155,"[2016, 2023]",,,,,2896,remote,Res_M,3,,
203,,Farmington Dam,California,CA,53013, , , ,Main, , , , , , ,Flood control,-120.9346,37.9162,"[1988, 2020]",6603,resopsus,7799,"hydroshare, resopsus",4123,hydroshare,Res_R,2,0.7555,0.0125
204,,Tulloch,California,CA,66800, ,Main, , , , , , , , ,Hydroelectricity,-120.6021,37.8771,"[1979, 2020]",14337,resopsus,14884,"hydroshare, matching, resopsus",14611,"hydroshare, resopsus",Res_R,1,0.9309,0.025
205,,Woodward,California,CA,17172.90912,Main,,,,,,,,,,Irrigation,-120.8754,37.8632,"[1982, 2023]",,,2649,matching,2910,remote,Res_M,1,,
206,,Clifton Court,California,CA,16472.30191,Main,,,,,,,,,,Irrigation,-121.5734,37.8627,"[2019, 2022]",,,,,1163,remote,Res_M,2,,
207,,Los Vaqueros,California,CA,131013.9853,,,Main,,,Sec,,,,Sec,Water supply,-121.7286,37.8353,"[2016, 2023]",,,,,2896,remote,Res_M,2,,
208,,New San Leandro,California,CA,20850.82,Sec,,Main,,,,,,,Sec,Water supply,-122.099,37.7635,"[2016, 2023]",,,,,2834,remote,Res_M,2,,
209,,Chabot,California,CA,12194.92326,,,Main,,,Sec,,,,Sec,Water supply,-122.1214,37.7313,"[2016, 2023]",,,,,2891,remote,Res_M,4,,
210,Don Pedro Reservoir,Don Pedro,California,CA,2045634,Main, , , , , , , , , ,Irrigation,-120.4204,37.7038,"[1980, 2024]",7940,resopsus,16403,"hydroshare, matching, resopsus",16070,"hydroshare, remote, resopsus",Res_R,3,0.7627,-0.0408
211,Dallas Warner Reservoir,Modesto Reservoir,California,CA,14500.46,Main,,,,,,,,,,Irrigation,-120.6797,37.6604,"[2016, 2023]",,,,,2910,remote,Res_M,2,,
212,,Turlock Lake,California,CA,35191.2,,,Main,,Sec,Sec,,Sec,,Sec,Water supply,-120.6008,37.6235,"[2016, 2023]",,,,,2910,remote,Res_M,2,,
213,,Del Valle,California,CA,50218,Main,,,,,,,,,,Irrigation,-121.744,37.6133,"[1980, 2024]",,,16403,matching,2896,remote,Res_R,1,0.874178897,0.177013605
214,Lake McClure,Exchequer Main,California,CA,1021545,Sec,Main, ,Sec,Sec, ,Sec,Sec, , ,Hydroelectricity,-120.2712,37.5862,"[1980, 2023]",8663,resopsus,15486,"hydroshare, matching, resopsus",11396,"hydroshare, remote, resopsus",Res_R,5,0.8248,0.0169
215,,San Andreas,California,CA,49871.48304,,,Main,,,Sec,,,,Sec,Water supply,-122.4116,37.5817,"[2016, 2023]",,,,,2896,remote,Res_M,4,,
216,San Antonio Reservoir,James H. Turner,California,CA,51284.89,,,Main,,,Sec,,,,Sec,Water supply,-121.8476,37.5721,"[1999, 2024]",,,9189,matching,2927,"remote, resopsus",Res_R,2,0.575255799,0.605863415
217,Crystal Springs Reservoir,Lower Crystal Springs,California,CA,30527.66,,,Main,,,Sec,,,,Sec,Water supply,-122.3622,37.526,"[2008, 2024]",,,5919,matching,2896,remote,Res_R,1,0.984094715,-0.091617891
218,,McSwain,California,CA,3526.06,Sec,Main,,,Sec,,,,,,Hydroelectricity,-120.3091,37.5197,"[1980, 2023]",14883,matching,2921,matching,,,Res_M,1,,
219,,Calaveras,California,CA,61695.21,,,Main,,,Sec,,,,Sec,Water supply,-121.8229,37.4896,"[2002, 2024]",,,8225,matching,2916,remote,Res_R,1,0.856820658,0.086523056
220,Lexington,James J. Lenihan,California,CA,13088.01494,Main,,,,,,,,,,Irrigation,-121.989,37.2003,"[2016, 2023]",,,,,2896,remote,Res_M,2,,
221,,Calero,California,CA,9829.18,Main,,,,,,,,,,Irrigation,-121.7895,37.1814,"[2016, 2023]",,,,,2896,remote,Res_M,2,,
222,Leroy Anderson,Leroy Anderson,California,CA,80076.75,Main,,,,,,,,,,Irrigation,-121.6296,37.1662,"[1980, 2024]",,,3860,matching,2910,remote,Res_L,2,-0.000325911,0.026061184
223,,Coyote,California,CA,111280,Main, , , , , , , , , ,Water supply,-121.5488,37.1188,"[1984, 2024]",8525,resopsus,10493,"hydroshare, matching, resopsus",12482,"hydroshare, remote, resopsus",Res_R,2,0.2446,0.0987
224,Loch Lomond,Newell,California,CA,5304.12,,,,,Main,,,,,,Recreation,-122.0724,37.1035,"[1980, 2024]",,,16403,matching,2896,remote,Res_R,1,0.952433528,0.030184205
225,O'Neill Forebay Reservoir,O'Neill Forebay Dike,California,CA,51591.45,,Main,,,,,,,,,Hydroelectricity,-121.0479,37.0938,,,,,,,,Res_M,3,,
226,San Luis Reservoir,B.F. Sisk,California,CA,1686915.71,Main,Sec,,,Sec,,,,,,Irrigation,-121.0824,37.0675,"[2016, 2023]",,,,,2836,remote,Res_M,2,,
227,,Uvas,California,CA,5892.197604,Main,,,,,,,,,,Irrigation,-121.6912,37.0659,"[1980, 2023]",1004,matching,4657,matching,2905,remote,Res_M,5,,
228,,Los Banos Creek Detention Dam,California,CA,20336.08,,,,Main,Sec,,,,,,Flood control,-120.933,36.9919,"[2016, 2023]",,,,,2896,remote,Res_M,1,,
229,,Hernandez,California,CA,10676.62,Main,,,,,,,,,,Irrigation,-120.8348,36.394,,,,,,,,Res_M,2,,
230,,San Antonio,California,CA,51284.89367,Main,,,,,,,,,,Irrigation,-120.8867,35.7987,"[2015, 2019]",,,,,583,resopsus,Res_M,3,,
231,,Nacimiento,California,CA,202483.16,Main,,,,,,,,,,Irrigation,-120.887,35.7595,"[1980, 2024]",,,16403,matching,,,Res_M,4,,
232,,Whale Rock,California,CA,28661.3,Main,,,,,,,,,,Irrigation,-120.885,35.449,,,,,,,,Res_M,3,,
233,Santa Margarita Lake,Salinas Dam,California,CA,15945.3,,,Main,,,,,,,,Water supply,-120.5006,35.3372,"[1980, 1986]",,,2291,matching,,,Res_M,4,,
234,,Lopez,California,CA,37162.25,Main,,,,,,,,,,Irrigation,-120.4865,35.1896,,,,,,,,Res_M,3,,
290,Boundry Reservoir,Boundary,Washington,WA,9178.5,,Main,,,Sec,,,,,,Hydroelectricity,-117.3478,48.985,"[1980, 2024]",,,15954,matching,,,Res_M,1,,
291,Osoyoos Lake,Osoyoos Lake Control Dam,Washington,WA,54966.34,,,,,Main,,,,,,Recreation,-119.4311,48.9526,"[1980, 1991]",,,4291,matching,,,Res_M,2,,
292,Lake Sherburne,Lake Sherburne,Montana,MT,68336,Main, , , , , , , , , ,Irrigation,-113.5246,48.8288,"[1914, 2024]",36438,"matching, resopsus",37816,"hydroshare, resopsus",36219,"hydroshare, remote, resopsus",Res_R,4,0.2838,0.0008
293,Fresno,Fresno,Montana,MT,117059,Main, ,Sec,Sec, , , , , , ,Irrigation,-109.9496,48.5996,"[1947, 2023]",26025,resopsus,26516,"hydroshare, resopsus",27802,"hydroshare, remote, resopsus",Res_R,3,0.6471,0.0232
294,Spectacle Lake,Conconully,Washington,WA,11953.96,Main,,,,,,,,,,Irrigation,-119.7475,48.5373,"[2010, 2024]",4442,matching,4441,matching,3696,resopsus,Res_R,4,0.912839571,-0.02865122
295,Nelson,Nelson Dike,Montana,MT,79297,Main, , , , , , , , , ,Irrigation,-107.5246,48.5329,"[1946, 2023]",,,9497,"hydroshare, resopsus",15336,"hydroshare, remote, resopsus",Res_R,2,0.3006,-0.0026
296,Lower Two Medicine Lake,Lower Two Medicine,Montana,MT,39814.46223,Main,,,,,,,,,,Irrigation,-113.2658,48.4934,"[2016, 2023]",,,,,2811,remote,Res_M,3,,
297,Lake Koocanusa,Libby,Montana,MT,5813789.93,,Main,,Sec,Sec,,,,,,Hydroelectricity,-115.3135,48.4114,"[1974, 2024]",16399,"usace, resopsus",16401,matching,17115,"usace, resopsus",Res_R,3,0.859880683,0.008865081
298,,Four Horns,Montana,MT,9223.943494,Main,,,,,,,,,,Irrigation,-112.6987,48.3464,"[2016, 2023]",,,,,2891,remote,Res_M,6,,
299,Hungry Horse,Hungry Horse,Montana,MT,3492403.24,Main,Sec,,Sec,,,,,,,Irrigation,-114.0104,48.3397,"[1965, 2024]",458,resopsus,16401,matching,21547,"remote, resopsus",Res_R,3,0.804691326,0.133045036
300,Lake Elwell,Tiber Dike,Montana,MT,1303858,Main, ,Sec,Sec,Sec, , , , , ,Irrigation,-111.1038,48.3246,"[1955, 2024]",23594,resopsus,25259,"hydroshare, matching, resopsus",23594,"hydroshare, resopsus",Res_R,5,0.5535,-0.0008
301,,Lake Frances East Dam,Montana,MT,159930.1642,Main,,Sec,,,,,,,,Irrigation,-112.2938,48.3021,"[2009, 2023]",,,,,3192,resopsus,Res_M,3,,
302,,Twin Lakes,Washington,WA,18970.68,Main,,,,,,,,,,Irrigation,-118.3782,48.2773,,,,,,,,Res_M,1,,
303,,Davis Lake Dam,Washington,WA,11998.56,,,,,Main,,,,,,Recreation,-117.2911,48.2302,"[2023, 2023]",,,,,1,remote,Res_M,2,,
304,,Ashley,Montana,MT,64435.23109,Main,,,,,,,,,,Irrigation,-114.6192,48.182,"[2016, 2023]",,,,,2827,remote,Res_M,3,,
305,Pend Oreille Lake,Albeni Falls,Idaho,ID,1542300, ,Main, ,Sec, , , , , , ,Hydroelectricity,-116.9979,48.1788,"[1960, 2024]",16401,matching,23177,"hydroshare, resopsus, usace",21708,"hydroshare, resopsus, usace",Res_R,2,0.42,0.001
306,,Swift Dike,Montana,MT,30640,Main, , , , , , , , , ,Irrigation,-112.8788,48.1621,"[2005, 2023]",3287,resopsus,5073,hydroshare,6648,"hydroshare, remote, resopsus",Res_R,3,0.9648,0.0124
307,Fort Peck Lake,Fort Peck Dam,Montana,MT,19300199,Sec,Sec, ,Main,Sec,Sec, , , , ,Flood control,-106.4146,48.0011,"[1938, 2024]",31117,"usace, resopsus",31096,"hydroshare, resopsus, usace",20638,"hydroshare, resopsus, usace",Res_R,6,0.3192,0.016
308,,Bynum Reservoir Dam,Montana,MT,42641.15,Main,,,,,,,,,,Irrigation,-112.4104,47.9604,"[2016, 2023]",,,,,2874,remote,Res_M,2,,
309,,Noxon Rapids,Montana,MT,195912.47,,Main,,,Sec,,Sec,,,,Hydroelectricity,-115.7339,47.9586,"[2016, 2023]",,,,,2816,remote,Res_M,1,,
310,Franklin D. Roosevelt,Grand Coulee,Washington,WA,5316798,Main, , ,Sec, , , , , , ,Irrigation,-118.981,47.9547,"[1965, 2024]",19587,resopsus,21852,"hydroshare, matching, resopsus",13111,"hydroshare, resopsus",Res_R,3,0.5682,0.0016
311,Banks Lake,Dry Falls,Washington,WA,715298.5656,Sec,Sec,,Main,,Sec,,,,,Flood control,-119.0195,47.9397,"[1998, 2023]",,,,,6712,resopsus,Res_M,4,,
312,Hubbert Reservoir,Hubbart,Montana,MT,8958.75,Main,,,,Sec,,,,,,Irrigation,-114.7353,47.9311,"[2016, 2023]",,,,,2843,remote,Res_M,2,,
313,,Long Lake,Washington,WA,92122.54,,Main,,,Sec,,Sec,,,,Hydroelectricity,-117.8377,47.8343,"[1980, 2024]",,,16376,matching,2849,remote,Res_R,1,0.999302644,0.001546535
314,,Newman Lake Flood Control Dam,Washington,WA,11268.91,,,,,Main,,,,,,Recreation,-117.0874,47.7631,,,,,,,,Res_M,2,,
315,Coeur d'Alene Lake,Post Falls Middle Channel,Idaho,ID,224972.86,,Main,,,Sec,,Sec,,,Sec,Hydroelectricity,-116.951,47.7052,"[1980, 2024]",,,16402,matching,,,Res_M,1,,
316,Flathead Lake,Kerr,Montana,MT,1263481, ,Main, , ,Sec, , , , , ,Hydroelectricity,-114.2323,47.6762,"[1980, 2024]",7397,resopsus,16401,"hydroshare, matching, resopsus",7349,"hydroshare, resopsus",Res_R,2,0.7963,0.0009
317,Pishkun,Pishkun Dike 1,Montana,MT,48207,Main, , , , , , , , , ,Irrigation,-112.4879,47.6746,"[1989, 2023]",,,9926,"hydroshare, resopsus",11438,"hydroshare, remote, resopsus",Res_R,1,0.9346,-0.0002
318,Pablo Reservoir,Pablo,Montana,MT,16194.85,Main,,,,Sec,,,,,,Irrigation,-114.1454,47.6432,"[2018, 2023]",,,,,1841,remote,Res_M,4,,
319,Gibson,Gibson,Montana,MT,99074,Main, , , , , , , , , ,Irrigation,-112.7662,47.5996,"[1930, 2024]",,,34663,"hydroshare, matching, resopsus",34273,"hydroshare, remote, resopsus",Res_R,1,0.897,0.0009
320,Willow Creek,Willow Creek,Montana,MT,36032.95,Main,,,,,,,,,,Irrigation,-112.4285,47.5491,"[1985, 2023]",12635,resopsus,12637,resopsus,13969,"remote, resopsus",Res_R,4,0.813432808,0.02057349
321,Lower Crow Reservoir,Crow,Montana,MT,5738.370059,Main,,,,Sec,,,,,,Irrigation,-114.2294,47.5037,"[2016, 2023]",,,,,2843,remote,Res_M,5,,
322,,Nilan East Dam,Montana,MT,10124.77554,Main,,,,,,,,,,Irrigation,-112.5396,47.4853,"[2016, 2023]",,,,,2891,remote,Res_M,2,,
323,Billy Clapp Lake,Pinto,Washington,WA,51377.77733,Main,,,,,,,,,,Irrigation,-119.2478,47.4485,"[2016, 2023]",,,,,2859,remote,Res_M,1,,
324,Ninepipe Reservoir,Ninepipe,Montana,MT,27804.34828,Main,,,,Sec,,,,,,Irrigation,-114.1308,47.4408,"[2016, 2023]",,,,,2843,remote,Res_M,4,,
325,St. Mary's Lake,Tabor,Montana,MT,16683.09,Main,,,,Sec,,,,,,Irrigation,-113.9312,47.2643,,,,,,,,Res_M,4,,
326,,Warhorse Dam,Montana,MT,21727.11,Main,,,,,,,,,,Irrigation,-108.5355,47.111,,,,,,,,Res_M,1,,
327,Moses Lake,Moses Lake South,Washington,WA,50020.99,Main,,,,,,,,,,Irrigation,-119.3301,47.0853,,,,,,,,Res_M,3,,
328,,Holter Dam,Montana,MT,178134.77,,Main,,Sec,Sec,,,,,,Hydroelectricity,-112.0021,46.9895,"[1980, 2024]",,,16401,matching,2891,remote,Res_R,1,0.994699058,0.002435021
329,Potholes,O'Sullivan,Washington,WA,690505.2216,Sec,Sec,,Main,,Sec,,,,,Flood control,-119.2646,46.9828,"[2016, 2023]",,,,,2809,remote,Res_M,3,,
330,,Petrolia,Montana,MT,10288.32,Main,,,,,,,,,,Irrigation,-108.2372,46.9409,,,,,,,,Res_M,2,,
331,,Nevada Creek Dam,Montana,MT,13376.21,Main,,,,,,,,,,Irrigation,-112.8092,46.801,"[1980, 2024]",16249,matching,2346,matching,2814,remote,Res_R,2,0.93192415,0.052285113
332,,Hauser Dam,Montana,MT,108134.22,,Main,,Sec,Sec,,,,,,Hydroelectricity,-111.8851,46.7605,"[1994, 2024]",,,11014,matching,2889,remote,Res_R,1,0.997253115,0.002652153
333,Scooteney Reservoir,Scooteney North Dike,Washington,WA,4620.97,Main,,,,,,,,,,Irrigation,-119.0302,46.7028,"[2022, 2023]",,,,,370,remote,Res_M,5,,
334,Lake Helena,Lake Helena,Montana,MT,21460.48,,,Main,,,,,,,,Water supply,-111.9019,46.7006,"[1989, 2018]",398,matching,,,9981,resopsus,Res_L,2,-0.135929521,0.390183715
335,,Scooteney Reservoir Outlet Dam,Washington,WA,102.82,Main,,,,,,,,,,Irrigation,-119.027,46.6717,,,,,,,,Res_M,4,,
336,,Newlan Creek Dam,Montana,MT,8719.617516,Main,,,,,,,,,,Irrigation,-110.9377,46.6373,"[2016, 2023]",,,,,2793,remote,Res_M,6,,
337,,North Fork of Smith River Dam,Montana,MT,9288.75,Main,,,,,,,,,,Irrigation,-110.7462,46.6213,,,,,,,,Res_M,6,,
338,Dworshak Reservoir,Dworshak Dam,Idaho,ID,3471074.2,,Sec,Sec,Main,Sec,,Sec,,,,Flood control,-116.297,46.5164,"[1960, 2024]",16538,"usace, resopsus",18751,"usace, resopsus",18318,"remote, resopsus",Res_R,3,0.802210285,0.017074511
339,,Martinsdale North Dam,Montana,MT,25561.77,Main,,,,,,,,,,Irrigation,-110.2694,46.4508,,,,,,,,Res_M,3,,
340,,Deadmans Basin Dam,Montana,MT,71151.41,Main,,,,,,,,,,Irrigation,-109.4229,46.3321,,,,,,,,Res_M,2,,
341,Georgetown Lake,Flint Creek Dam,Montana,MT,228664.02,,,Main,,,,,,,,Water supply,-113.2781,46.2086,"[1980, 2024]",,,12796,matching,2786,remote,Res_L,3,-0.031174248,0.105917117
342,,Silver Lake East Dam,Montana,MT,11988.37,Main,,,,,,,,,,Irrigation,-113.2354,46.1647,,,,,,,,Res_M,2,,
343,,Opportunity Tailings Ponds,Montana,MT,8998.92,,,,,,,,,,Main,Other,-112.7823,46.1592,"[1988, 2024]",7908,matching,13297,matching,,,Res_M,1,,
344,Flint Creek,East Fork Rock Creek Dam,Montana,MT,15403.22,Main,Sec,,,,,,,,,Irrigation,-113.3806,46.1296,"[2016, 2023]",,,,,2811,remote,Res_M,2,,
345,Lake Como,Como,Montana,MT,40674.28192,Main,,,,,,,,,,Irrigation,-114.2365,46.0638,"[1985, 2023]",,,,,10390,resopsus,Res_M,2,,
346,Cold Springs,Cold Springs,Oregon,OR,50989.79414,Main,,,,,,,,,,Irrigation,-119.1717,45.8604,"[1965, 2023]",,,,,10277,resopsus,Res_M,3,,
347,Painted Rocks,West Fork Bitterroot,Montana,MT,44653.41,Main,,,,,,,,,,Irrigation,-114.2819,45.7171,"[1980, 2024]",456,resopsus,16401,matching,3310,"remote, resopsus",Res_R,1,0.92827838,-0.011139937
348,,Willow Creek Dam,Montana,MT,5254.330527,Main,,,,,,,,,,Irrigation,-111.7024,45.7053,"[2016, 2023]",,,,,2849,remote,Res_M,5,,
349,Carty Reservoir,Carty Reservoir,Oregon,OR,28155.17,Main,,,,,,,,,Sec,Irrigation,-119.8177,45.6923,,,,,,,,Res_M,3,,
350,McKay,McKay,Oregon,OR,72505.31,Main,,,Sec,Sec,,Sec,,,,Irrigation,-118.7927,45.6053,"[1973, 2020]",,,4291,matching,17228,resopsus,Res_R,4,0.715260355,-0.008131313
351,,Cooney,Montana,MT,16416.44,Main,,,,,,,,,,Irrigation,-109.2035,45.4505,"[1980, 2024]",9722,matching,8152,matching,,,Res_M,2,,
352,,Madison Dam,Montana,MT,74846.27221,,Main,Sec,Sec,Sec,,,,,,Hydroelectricity,-111.6605,45.4479,"[2002, 2024]",,,8275,matching,2849,remote,Res_R,1,0.97837791,-0.015925106
353,Willow Creek Reservoir,Willow Creek Reservoir,Oregon,OR,9101,Sec, , , ,Main, , , , , ,Recreation,-119.5438,45.3445,"[1980, 2024]",8402,"usace, matching",15707,"hydroshare, resopsus, usace",13106,"hydroshare, resopsus, usace",Res_R,1,0.719,-0.0211
354,Wallowa Lake,Wallowa Lake,Oregon,OR,49291.35,Main,Sec,Sec,,,,,,,,Irrigation,-117.2212,45.3336,"[1980, 1991]",,,4290,matching,,,Res_M,2,,
355,Bighorn Lake,Yellowtail,Montana,MT,1245283,Main,Sec,Sec,Sec,Sec, , , , ,Sec,Irrigation,-107.9579,45.3071,"[1965, 2024]",19941,resopsus,21605,"hydroshare, matching, resopsus",21228,"hydroshare, remote, resopsus",Res_R,4,0.7966,0.0015
356,,Ruby Dam,Montana,MT,19959.21,Main,,,,,,,,,,Irrigation,-112.1112,45.2379,"[1980, 2024]",,,16401,matching,2849,remote,Res_R,1,0.890874404,0.086008692
357,,Mystic Lake,Montana,MT,20997.47,,Main,,,Sec,,,,,,Hydroelectricity,-109.7656,45.2243,"[1980, 2024]",,,16401,matching,,,Res_M,2,,
358,Lodge Grass Reservoir,Willow Creek,Montana,MT,16310.99,Main,,,,Sec,,,,,,Irrigation,-107.5979,45.1646,,,,,,,,Res_M,4,,
359,,Tongue River Dam,Montana,MT,102112.86,Main,,,,,,,,,,Irrigation,-106.7698,45.1306,"[1980, 2024]",,,16400,matching,,,Res_M,4,,
360,,Wolf Creek Reservoir,Oregon,OR,11347.65,Main,,,,,,,,,,Irrigation,-118.0199,45.0531,,,,,,,,Res_M,2,,
361,Thief Valley,Thief Valley,Oregon,OR,18579,Main, , , , , , , , , ,Irrigation,-117.7829,45.0138,"[1975, 2020]",13168,resopsus,15493,"hydroshare, resopsus",14703,"hydroshare, resopsus",Res_R,1,0.9794,-0.0019
362,Clark Canyon,Clark Canyon,Montana,MT,227979,Main, , ,Sec, , , , , , ,Irrigation,-112.8621,44.9996,"[1963, 2023]",20672,resopsus,20672,"hydroshare, resopsus",22005,"hydroshare, remote, resopsus",Res_R,4,0.699,-0.0002
363,Oxbow,Oxbow,Oregon,OR,58371.34,,Main,,,Sec,,,,,,Hydroelectricity,-116.8371,44.9709,"[1980, 1996]",6026,matching,6049,matching,,,Res_M,3,,
364,Hebgen Lake,Hebgen Dam,Montana,MT,478614.26,,Main,Sec,Sec,Sec,,,,,,Hydroelectricity,-111.3341,44.8632,"[1980, 2024]",11592,resopsus,16398,matching,11634,resopsus,Res_R,4,0.635349458,-0.0197756
365,Brownlee,Brownlee,Idaho,ID,897078.9,,Main,,Sec,Sec,Sec,Sec,,,,Hydroelectricity,-116.9022,44.835,"[1980, 1996]",,,6026,matching,,,Res_M,5,,
366,,Earthquake Lake,Montana,MT,30023.09,,,,,,,,,,Main,Other,-111.4222,44.8315,"[1980, 2024]",16398,matching,,,2768,remote,Res_L,1,0.989587624,3.12E-17
367,Phillips Lake,Mason,Oregon,OR,84263,Main, , ,Sec, , , , , , ,Irrigation,-117.9996,44.6712,"[1965, 2023]",19420,resopsus,20364,"hydroshare, resopsus",20515,"hydroshare, remote, resopsus",Res_R,3,0.71,-0.013
368,,Lima,Montana,MT,84246,Main, , , , , , , , , ,Irrigation,-112.3632,44.6549,"[1980, 2023]",10609,resopsus,11469,hydroshare,12842,"hydroshare, remote, resopsus",Res_R,2,0.6738,0.0056
369,,Big Goose Park Main Dam,Wyoming,WY,12484.98,Main,,,,,,,,,,Irrigation,-107.2135,44.5681,"[2001, 2002]",,,291,matching,,,Res_M,2,,
370,Lake Cascade,Cascade,Idaho,ID,665022,Main,Sec, , ,Sec, , , , , ,Irrigation,-116.0538,44.5246,"[1965, 2023]",14667,resopsus,16010,"hydroshare, matching",20454,"hydroshare, resopsus",Res_R,3,-1.03,-0.035
371,Lake Desmet,Lake Desmet,Wyoming,WY,126906.94,,,Main,,,,,,,,Water supply,-106.7819,44.5139,"[1980, 1982]",,,,,,,Res_M,2,,
372,Unity,Unity,Oregon,OR,26389,Main, , , , , , , , , ,Irrigation,-118.1829,44.5046,"[1965, 2023]",20454,resopsus,20454,"hydroshare, resopsus",21518,"hydroshare, remote, resopsus",Res_R,1,0.83,-0.001
373,Buffalo Bill,Buffalo Bill,Wyoming,WY,646647,Sec,Main,Sec, ,Sec, ,Sec, , , ,Hydroelectricity,-109.1871,44.5004,"[1951, 2023]",25055,resopsus,25055,"hydroshare, resopsus",26377,"hydroshare, remote, resopsus",Res_R,6,0.7794,0.0289
374,Island Park,Island Park,Idaho,ID,143470,Main, , , , , , , , , ,Irrigation,-111.395,44.4201,"[1965, 2020]",20454,resopsus,14966,hydroshare,20454,"hydroshare, resopsus",Res_R,4,0.599,-0.0271
375,Mann Creek,Mann Creek,Idaho,ID,11709.12786,Main,,,,,,,,,,Irrigation,-116.8981,44.3938,"[1967, 2023]",,,,,19381,resopsus,Res_M,2,,
376,Malheur 3,Willow Creek Reservoir 3,Oregon,OR,13590.61,Main,,,,,,,,,,Irrigation,-117.6744,44.3546,,,,,,,,Res_M,2,,
377,Deadwood,Deadwood,Idaho,ID,172249.76,Main,Sec,,,Sec,,,,,,Irrigation,-115.6456,44.295,"[1965, 2024]",,,16399,matching,21505,"remote, resopsus",Res_R,2,0.713142333,0.04482421
378,Grassy Lake,Grassy Lake,Wyoming,WY,15442,Main, , , , , , , , , ,Irrigation,-110.8173,44.1298,"[1965, 2020]",14427,resopsus,14427,"hydroshare, resopsus",18418,"hydroshare, resopsus",Res_R,4,-0.1129,-0.0937
379,Lower Sunshine,Lower Sunshine,Wyoming,WY,69635.28,Main,Sec,,,,,,Sec,,,Irrigation,-108.9812,44.0973,,,,,,,,Res_M,2,,
380,,Ashton,Idaho,ID,2967.2,,Main,,,,,,,,,Hydroelectricity,-111.4962,44.0789,"[1980, 2024]",,,16401,matching,,,Res_M,1,,
381,Upper Sunshine,Upper Sunshine,Wyoming,WY,44426.77,Main,,,,,,,,,,Irrigation,-109.0499,44.059,,,,,,,,Res_M,2,,
382,Bully Creek,Bully Creek,Oregon,OR,31464,Main, , ,Sec,Sec, ,Sec, , , ,Irrigation,-117.3996,44.0162,"[1969, 2023]",,,14607,"hydroshare, resopsus",19809,"hydroshare, remote, resopsus",Res_R,3,0.84,-0.012
383,Beulah,Agency Valley,Oregon,OR,61460.96,Main,,,Sec,,,,,,,Irrigation,-118.1552,43.9121,"[1969, 2023]",,,13788,matching,19759,"remote, resopsus",Res_R,3,0.895738425,0.051994697
384,Jackson Lake,Jackson Lake,Wyoming,WY,874138,Main, , ,Sec,Sec, ,Sec, , , ,Irrigation,-110.5912,43.8579,"[1965, 2024]",20454,resopsus,21881,"hydroshare, matching, resopsus",21492,"hydroshare, remote, resopsus",Res_R,4,0.14,0.007
385,Anchor,Anchor,Wyoming,WY,8034,Main, , , , , , , , , ,Irrigation,-108.8288,43.6654,"[1961, 2023]",20876,resopsus,21402,"hydroshare, resopsus",22572,"hydroshare, remote, resopsus",Res_R,6,0.5711,-0.0081
386,Lake Owyhee,Owyhee,Oregon,OR,730359,Main, , , , , , , , , ,Irrigation,-117.2412,43.6412,"[1965, 2024]",20454,resopsus,21879,"hydroshare, matching, resopsus",21540,"hydroshare, remote, resopsus",Res_R,2,0.5,-0.019
387,Arrowrock,Arrowrock,Idaho,ID,290198,Main,Sec, ,Sec, , , , , , ,Irrigation,-115.9212,43.5946,"[1965, 2023]",20453,resopsus,10954,hydroshare,21500,"hydroshare, remote, resopsus",Res_R,2,0.69,-0.008
388,Warm Springs,Warm Springs,Oregon,OR,191781.46,Main,,,,,,,,,,Irrigation,-118.2091,43.5869,"[1969, 2023]",,,13788,matching,19810,"remote, resopsus",Res_R,2,0.791876547,0.135742227
389,Lake Lowell,Deer Flat Upper,Idaho,ID,170235.9479,Main,,,,,,,,,,Irrigation,-116.7312,43.5846,"[1965, 2023]",,,,,20449,resopsus,Res_M,4,,
390,Ririe,Ririe,Idaho,ID,84081,Sec, , ,Main,Sec, , , , , ,Flood control,-111.7412,43.5829,"[1965, 2024]",16439,resopsus,21879,"hydroshare, matching, resopsus",17524,"hydroshare, remote, resopsus",Res_R,3,0.57,0.001
391,Lucky Peak Lake,Lucky Peak,Idaho,ID,295753,Sec,Sec, ,Main,Sec, , , , , ,Flood control,-116.0512,43.5279,"[1965, 2024]",14368,"usace, resopsus",21504,"hydroshare, resopsus, usace",21605,"hydroshare, resopsus, usace",Res_R,1,0.85,0.005
392,Little Wood River,Little Wood River,Idaho,ID,31000.04,Main,,,Sec,,,,,,,Irrigation,-114.0283,43.4265,"[1965, 2024]",16254,matching,16397,matching,20021,"remote, resopsus",Res_R,1,0.809435568,-0.000666238
393,Boysen,Boysen,Wyoming,WY,887132,Sec,Sec,Sec,Main,Sec, ,Sec, , , ,Flood control,-108.1788,43.4154,"[1911, 2023]",39665,resopsus,25055,"hydroshare, resopsus",26349,"hydroshare, remote, resopsus",Res_R,4,0.7235,0.0009
394,Anderson Ranch,Anderson Ranch,Idaho,ID,432598.89,Main,Sec,,Sec,,,,,,,Irrigation,-115.4474,43.3602,"[1965, 2024]",,,16401,matching,21532,"remote, resopsus",Res_R,3,0.8370886,0.026705411
395,Little Camas Reservoir,Little Camas Dam,Idaho,ID,24078.18,Main,,,,,,,,,,Irrigation,-115.3887,43.3507,,,,,,,,Res_M,1,,
396,Palisades,Palisades,Idaho,ID,1214586,Main,Sec, ,Sec,Sec, ,Sec, , , ,Irrigation,-111.2038,43.3312,"[1965, 2024]",20443,resopsus,16398,"hydroshare, matching",21539,"hydroshare, remote, resopsus",Res_R,2,0.64,-0.005
397,,Magic Dam,Idaho,ID,174588.48,Sec,Main,,,,,,,,,Hydroelectricity,-114.3605,43.2564,"[1980, 2024]",,,16401,matching,,,Res_M,1,,
398,Bull Lake,Bull Lake,Wyoming,WY,151516,Main, , ,Sec,Sec, ,Sec, , , ,Irrigation,-109.0454,43.2121,"[1968, 2020]",18845,resopsus,18845,"hydroshare, resopsus",18784,"hydroshare, resopsus",Res_R,3,0.6694,-0.0037
399,Pilot Butte,Pilot Butte,Wyoming,WY,37465,Main, , , , , , , , , ,Irrigation,-108.7604,43.1955,"[1949, 2023]",18354,resopsus,18845,"hydroshare, resopsus",20400,"hydroshare, remote, resopsus",Res_R,2,0.8266,0.0128
400,New Fork Lake,New Fork Lake,Wyoming,WY,38663.7569,Main,,,,,,,,,,Irrigation,-109.9673,43.0897,"[2009, 2023]",,,773,matching,2798,remote,Res_M,3,,
401,Golden Eye Reservoir,Johnson 1,Wyoming,WY,4618.926052,,,Main,,,,,,,,Water supply,-106.699,43.0156,"[2016, 2023]",,,,,2824,remote,Res_M,2,,
402,Blackfoot River Reservoir,Blackfoot,Idaho,ID,412213.41,Main,,,Sec,Sec,,,,,,Irrigation,-111.7135,43.0065,"[2016, 2023]",,,742,matching,2809,remote,Res_L,4,-0.438257144,0.163948855
403,,Willow Lake,Wyoming,WY,214500.01,Main,,,,,,,Sec,,,Irrigation,-109.9051,42.995,"[2016, 2024]",,,337,matching,2796,remote,Res_L,4,0.065477122,-0.000275723
404,Ray Lake Reservoir,Ray Lake,Wyoming,WY,4619.492061,Main,,Sec,,,,,Sec,,,Irrigation,-108.8198,42.9531,"[2019, 2023]",,,,,1524,remote,Res_M,5,,
405,,C.J. Strike,Idaho,ID,250600,Sec,Main, , ,Sec, , , , , ,Hydroelectricity,-115.9729,42.9479,"[1985, 2020]",,,12601,"hydroshare, resopsus",12499,"hydroshare, resopsus",Res_R,1,0.9858,0.0002
406,Antelope Reservoir,Antelope Dam,Oregon,OR,7169.46,Main,,,,,,,,,,Irrigation,-117.2345,42.9065,,,,,,,,Res_M,6,,
407,Fremont Lake,Fremont Lake,Wyoming,WY,425932.7157,Main,,,,,,Sec,,,,Irrigation,-109.8354,42.9069,"[1985, 2023]",,,7542,matching,2791,remote,Res_M,3,,
408,,Lower Salmon,Idaho,ID,10863.55,,Main,,,Sec,,,,,,Hydroelectricity,-114.9062,42.8393,"[1980, 2023]",,,15979,matching,,,Res_M,1,,
409,,Boulder Lake,Wyoming,WY,99531.38,Main,,Sec,,Sec,,Sec,Sec,,,Irrigation,-109.7014,42.8362,"[2016, 2024]",373,matching,,,2791,remote,Res_L,3,-0.13357464,-0.148387464
410,Long Beach,Shoshone Lake,Wyoming,WY,46992.4721,Main,,,,,,,,,,Irrigation,-109.0177,42.7932,"[2016, 2023]",,,,,2762,remote,Res_M,2,,
411,American Falls,American Falls,Idaho,ID,1705738,Main,Sec, , ,Sec, , , , , ,Irrigation,-112.8746,42.7829,"[1965, 2024]",20454,resopsus,16401,"hydroshare, matching",21539,"hydroshare, remote, resopsus",Res_R,2,0.69,-0.003
412,,Laprele,Wyoming,WY,14285.99,Main,,,,,,,,,,Irrigation,-105.6137,42.7185,,,,,,,,Res_M,3,,
413,Lake Walcott,Minidoka,Idaho,ID,99645,Main,Sec, , ,Sec, , , , , ,Irrigation,-113.4838,42.6688,"[1965, 2024]",13237,resopsus,16401,"hydroshare, matching, resopsus",21549,"hydroshare, remote, resopsus",Res_R,1,0.9939,-0.0001
414,Alexander,Soda,Idaho,ID,11940.74,,Main,,,,,,,,,Hydroelectricity,-111.6947,42.6445,"[1980, 2023]",,,11229,matching,2803,remote,Res_L,1,0.998718609,-1.45E-16
415,Alcova,Alcova,Wyoming,WY,190300,Main,Sec, , , , , , , , ,Irrigation,-106.7271,42.5431,"[1945, 2020]",26755,resopsus,27017,"hydroshare, resopsus",27246,"hydroshare, resopsus",Res_R,1,0.8813,0.0057
416,Pathfinder,Pathfinder Dike,Wyoming,WY,1093275,Main,Sec, , , , , , , , ,Irrigation,-106.8538,42.4646,"[1945, 2023]",26755,resopsus,27246,"hydroshare, resopsus",28572,"hydroshare, remote, resopsus",Res_R,4,0.6041,0.0299
417,Hart Lake,Hart Lake,Oregon,OR,320264.9397,Main,,,,,,,,,,Irrigation,-119.8562,42.4431,"[2016, 2023]",,,,,2846,remote,Res_M,3,,
418,,Oneida,Idaho,ID,11431.05,Sec,Main,,,,,,,,,Hydroelectricity,-111.7464,42.2744,"[2013, 2023]",,,1461,matching,2797,remote,Res_L,1,0.999919143,-6.04E-17
419,,Big Sandy Dike,Wyoming,WY,44332,Main, , ,Sec, , , , , , ,Irrigation,-109.4329,42.2537,"[1970, 2023]",11665,resopsus,12247,"hydroshare, resopsus",13337,"hydroshare, remote, resopsus",Res_R,3,0.69,0
420,Eden,Eden Dike 1,Wyoming,WY,13885.08,Main,,,,,,,,,,Irrigation,-109.3723,42.2389,"[1974, 2023]",6388,resopsus,6181,resopsus,5550,"remote, resopsus",Res_R,2,0.717540698,-0.22922795
421,Seminoe,Seminoe,Wyoming,WY,1009383,Main,Sec, , ,Sec, , , , , ,Irrigation,-106.9079,42.1554,"[1945, 2020]",26755,resopsus,27246,"hydroshare, resopsus",27246,"hydroshare, resopsus",Res_R,4,0.6141,0.0225
422,Greaser Lake,Greaser Lake,Oregon,OR,5160.44,Main,,,,,,,,,,Irrigation,-119.8146,42.1306,,,,,,,,Res_M,5,,
423,Fontenelle,Fontenelle,Wyoming,WY,350698, ,Main,Sec, ,Sec, ,Sec, , , ,Hydroelectricity,-110.0662,42.0288,"[1964, 2024]",21583,"matching, resopsus",22132,"hydroshare, matching, resopsus",21212,"hydroshare, remote, resopsus",Res_R,6,0.68,-0.002
424,,Wheatland 1,Wyoming,WY,9199.971124,Main,,,,,,,,,,Irrigation,-105.0437,41.9979,"[1984, 2023]",,,,,8153,resopsus,Res_M,3,,
425,Lake Viva Naughton,Lake Viva Naughton Dam,Wyoming,WY,22261.94,Sec,,,,,,,,,Main,Other,-110.6604,41.9694,"[1980, 2024]",16401,matching,,,,,Res_M,2,,
426,Post Lake,Wheatland 3,Wyoming,WY,33450.13,Main,,,,,,,,,,Irrigation,-105.7066,41.852,"[2017, 2023]",,,,,2474,remote,Res_M,4,,
427,,Cutler,Utah,UT,41890.33,,Main,,,,,,,,,Hydroelectricity,-112.0371,41.8452,"[1980, 2023]",,,11231,matching,2858,remote,Res_L,5,0.716333156,-0.260840657
428,,Wheatland 2,Wyoming,WY,98799.97,Main,,,,,,,,,,Irrigation,-105.6421,41.8338,"[1980, 2023]",3142,matching,4928,resopsus,11753,"remote, resopsus",Res_R,3,0.745942921,-0.025324916
429,,Texasgulf Tailings,Wyoming,WY,3593.08,,,,,,,,,,Main,Other,-109.8771,41.7422,,,,,,,,Res_M,2,,
430,Wild Horse Reservoir,Wild Horse Dam,Nevada,NV,79834.15,Sec,,,Sec,Main,,Sec,,,,Recreation,-115.8338,41.6847,"[1980, 2024]",,,16376,matching,15725,"remote, resopsus",Res_R,4,0.847651773,-0.194076599
431,Hyrum,Hyrum,Utah,UT,15773,Main, ,Sec, ,Sec, , , , , ,Irrigation,-111.8721,41.6246,"[1974, 2023]",10930,resopsus,11632,"hydroshare, resopsus",11239,"hydroshare, remote, resopsus",Res_R,4,0.87,0.001
432,,Porcupine,Utah,UT,9419.76,Main,,,,,,,,,,Irrigation,-111.746,41.5192,"[1980, 2023]",2464,matching,,,2826,remote,Res_M,3,,
433,,Woodruff Narrows,Wyoming,WY,49607.8,Main,,,,,,,,,,Irrigation,-111.0188,41.5017,"[1980, 2024]",16403,matching,16396,matching,2768,remote,Res_R,1,0.966075344,-0.033992114
434,,James Lake,Wyoming,WY,8669.42,Main,,,,,,,,,,Irrigation,-105.8861,41.4759,,,,,,,,Res_M,3,,
435,,Jerritt Canyon Tailings Dam,Nevada,NV,11923.5748,,,,,,,,,,Main,Other,-115.8951,41.399,"[2016, 2023]",,,,,2635,remote,Res_M,1,,
436,,Chimney Dam,Nevada,NV,23607.02,Sec,,,,Main,,,,,,Recreation,-117.1796,41.3953,"[1980, 2024]",,,856,matching,,,Res_M,3,,
437,Willard,Arthur V. Watkins,Utah,UT,221940,Main, ,Sec, , , , , , , ,Irrigation,-112.1304,41.3787,"[1985, 2021]",,,10478,"hydroshare, resopsus",8221,"hydroshare, resopsus",Res_R,6,0.27,-0.023
438,Pineview,Pineview,Utah,UT,113316,Sec,Sec,Sec,Main,Sec, , , , , ,Flood control,-111.8388,41.2562,"[1977, 2023]",12643,resopsus,15275,"hydroshare, resopsus",16816,"hydroshare, remote, resopsus",Res_R,4,0.59,-0.012
439,Lake Hattie,Lake Hattie Dam,Wyoming,WY,30463.75421,Main,,,,,,,,,,Irrigation,-105.9023,41.2405,"[2019, 2023]",,,,,1496,remote,Res_M,3,,
440,,Getchell Mine Tailings Dam,Nevada,NV,5567.53,,,,,,,,,,Main,Other,-117.2189,41.2363,,,,,,,,Res_M,1,,
441,,Rob Roy,Wyoming,WY,38313.37693,Sec,,Main,,,,,,,,Water supply,-106.2605,41.1985,"[2016, 2023]",,,,,2711,remote,Res_M,3,,
442,Lost Creek,Lost Creek,Utah,UT,23171,Main, ,Sec,Sec,Sec, , , , , ,Irrigation,-111.3988,41.1871,"[1982, 2024]",11419,resopsus,13502,"hydroshare, matching, resopsus",12447,"hydroshare, remote, resopsus",Res_R,3,0.27,0.069
443,,Sulphur Creek,Wyoming,WY,13609.09125,Main,,Sec,Sec,,,Sec,,,Sec,Irrigation,-110.8309,41.1559,"[1980, 2022]",,,4663,matching,1529,remote,Res_M,3,,
444,,Hog Park Main Dam,Wyoming,WY,13207.98557,Sec,,Main,,,,Sec,,,,Water supply,-106.8616,41.0347,"[2016, 2023]",,,,,2731,remote,Res_M,2,,
445,,Meeks Cabin,Wyoming,WY,32495,Main, , , , , , , , , ,Irrigation,-110.5821,41.0254,"[1973, 2023]",16855,resopsus,17038,"hydroshare, resopsus",14160,"hydroshare, remote, resopsus",Res_R,4,0.88,0.001
446,,North Block Tailings Impoundment,Nevada,NV,16627.54,,,,,,,,,,Main,Other,-116.3636,41.0086,,,,,,,,Res_M,1,,
447,,Tails Dam,Nevada,NV,7309.93,,,,,,,,,,Main,Other,-116.3411,40.9878,,,,,,,,Res_M,1,,
448,,Bor Stateline Summit,Utah,UT,14437,Main, , , , , , , , , ,Irrigation,-110.387,40.988,"[1979, 2023]",14137,resopsus,14229,"hydroshare, resopsus",11844,"hydroshare, remote, resopsus",Res_R,3,0.8344,0.0148
449,Echo,Echo,Utah,UT,75965,Main,Sec, ,Sec,Sec, , , , , ,Irrigation,-111.4304,40.9654,"[1967, 2024]",19651,resopsus,21150,"hydroshare, matching, resopsus",20736,"hydroshare, remote, resopsus",Res_R,4,0.9132,-0.0346
450,East Canyon,East Canyon,Utah,UT,50456,Main, ,Sec,Sec, , , , , , ,Irrigation,-111.5996,40.9204,"[1980, 2024]",11366,resopsus,16403,"hydroshare, matching, resopsus",11776,"hydroshare, resopsus",Res_R,4,0.47,0.004
451,Flaming Gorge,Flaming Gorge,Utah,UT,3662859, ,Sec,Main,Sec,Sec, , , , , ,Water supply,-109.4204,40.9162,"[1962, 2024]",21241,resopsus,22672,"hydroshare, matching, resopsus",22267,"hydroshare, remote, resopsus",Res_R,3,0.13,-0.005
452,Long Park,Long Park,Utah,UT,55944.41795,Main,,,,,,,,,,Irrigation,-109.8688,40.9095,"[2016, 2022]",,,,,2270,remote,Res_M,3,,
453,,Amax Solar Ponds,Utah,UT,1086.5,,,,,,,,,,,,-112.7035,40.9079,,,,,,,,Res_M,1,,
454,,Rawhide,Colorado,CO,12821.01246,,,Main,,,,,,,,Water supply,-105.0199,40.8496,"[2016, 2023]",,,,,2912,remote,Res_M,4,,
455,Steamboat Lake,Willow Creek,Colorado,CO,24004.94,,,,,Main,,,,,,Recreation,-106.9487,40.7936,"[2016, 2023]",,,,,2741,remote,Res_M,2,,
456,Rock Port Lake,Wanship,Utah,UT,65272,Sec,Sec,Sec,Main,Sec, , , , , ,Flood control,-111.4026,40.7879,"[1968, 2024]",20310,"matching, resopsus",20509,"hydroshare, matching, resopsus",20044,"hydroshare, remote, resopsus",Res_R,3,0.7246,0.0094
457,,Little Dell,Utah,UT,10365.21134,,,Main,,,,,,,,Water supply,-111.7016,40.7701,"[2016, 2023]",,,,,2802,remote,Res_M,4,,
458,Smith and Morehouse Reservoir,Smith and Morehouse Dam,Utah,UT,8610,Main, , , , , , , , , ,Irrigation,-111.104,40.7627,"[1980, 2023]",6601,resopsus,9431,"hydroshare, matching, resopsus",7646,"hydroshare, remote, resopsus",Res_R,3,0.8768,0.0017
459,,James Creek Tailings Dam,Nevada,NV,2342.44,,,,,,,,,,Main,Other,-116.1954,40.7488,"[2018, 2023]",,,,,1956,remote,Res_M,1,,
460,,Douglas,Colorado,CO,11227.69,Main,,,,,,Sec,,,,Irrigation,-105.0878,40.708,"[2016, 2023]",,,,,2609,remote,Res_M,2,,
461,,South Fork,Nevada,NV,21980.72,Sec,,,Sec,Main,,Sec,,,,Recreation,-115.7835,40.6837,"[1980, 2024]",,,14288,matching,2834,remote,Res_R,1,0.991643883,0.012306333
462,,North Poudre 6,Colorado,CO,5430.49,Main,,,,,,,,,,Irrigation,-105.0302,40.6739,,,,,,,,Res_M,5,,
463,,Windsor 8,Colorado,CO,8548.33,Main,,,,,,,,,,Irrigation,-105.0469,40.6569,,,,,,,,Res_M,3,,
464,,Upper Pitt Taylor,Nevada,NV,23791.18,Main,,,,,,,,,,Irrigation,-118.2692,40.64,,,,,,,,Res_M,1,,
465,Terry Lake,Terry Lake,Colorado,CO,4401.6,Main,,,,,,,,,,Irrigation,-105.084,40.6239,"[2016, 2023]",,,,,2892,remote,Res_M,5,,
466,,Chambers Lake,Colorado,CO,10676.87,Main,,,,,,,,,,Irrigation,-105.8444,40.6036,"[1980, 2024]",16395,matching,,,1986,remote,Res_R,1,0.984220672,-0.071027308
467,,Bor Jordanelle,Utah,UT,316023, , ,Main, , , , , , , ,Water supply,-111.4246,40.5996,"[1991, 2023]",10166,resopsus,10711,"hydroshare, matching, resopsus",11274,"hydroshare, remote, resopsus",Res_R,3,0.67,0.006
468,Horsetooth,Dixon Canyon,Colorado,CO,157074.83,Main,,,,,,,,,,Irrigation,-105.1647,40.5896,"[1986, 2023]",,,8968,resopsus,13621,"remote, resopsus",Res_R,4,0.810244795,-0.013825541
469,Red Fleet,Red Fleet,Utah,UT,26099,Main, ,Sec, ,Sec, ,Sec, , , ,Irrigation,-109.4204,40.5788,"[1980, 2024]",16403,matching,13061,"hydroshare, resopsus",14110,"hydroshare, remote, resopsus",Res_R,3,0.8,0.006
470,,Upper Bor Stillwater,Utah,UT,31691,Main, , , , , , , , , ,Irrigation,-110.7029,40.5621,"[1980, 2023]",11066,resopsus,13359,"hydroshare, matching, resopsus",12507,"hydroshare, remote, resopsus",Res_R,3,0.46,-0.006
471,Moon Lake,Moon Lake,Utah,UT,38772,Main, , , , , , , , , ,Irrigation,-110.4888,40.5621,"[1974, 2024]",11169,resopsus,16486,"hydroshare, matching, resopsus",10505,"hydroshare, remote, resopsus",Res_R,3,0.68,0.016
472,,Elkhead Creek,Colorado,CO,18484.26,,,Sec,,,,Main,,,,Other,-107.3829,40.5581,"[1995, 2008]",,,4719,matching,,,Res_M,2,,
473,Steinaker,Steinaker,Utah,UT,36643,Main, , , , , , , , , ,Irrigation,-109.5329,40.5121,"[1974, 2021]",16918,resopsus,16918,"hydroshare, resopsus",13076,"hydroshare, remote, resopsus",Res_R,3,0.75,-0.011
474,Long Draw,Long Draw,Colorado,CO,11301.18,Main,,,,,,,,,,Irrigation,-105.7739,40.502,"[2016, 2023]",,,,,2736,remote,Res_M,2,,
475,Rye Patch Reservoir,Lower Pitt Taylor,Nevada,NV,270121.88,Main,,,,,,,,,,Irrigation,-118.3102,40.4701,"[1980, 2024]",,,16401,matching,2866,remote,Res_R,3,0.785281705,-0.050269566
476,,Boyd Lake,Colorado,CO,24465.39333,Sec,,Sec,,Sec,,Main,,,,Other,-105.0423,40.4629,"[2016, 2023]",,,,,2443,remote,Res_M,3,,
477,Deer Creek,Deer Creek,Utah,UT,153492,Main,Sec, , ,Sec, , , , , ,Irrigation,-111.5279,40.4079,"[1950, 2023]",19644,resopsus,21239,"hydroshare, resopsus",26988,"hydroshare, remote, resopsus",Res_R,3,0.63,0.005
478,,Lake Loveland,Colorado,CO,7741.17,Main,,Sec,,Sec,,,,,,Irrigation,-105.0865,40.4067,"[2016, 2023]",,,,,2857,remote,Res_M,2,,
479,Utah Lake,Utah Lake Outlet,Utah,UT,4762940.27,,,Main,,,,,,,,Water supply,-111.8921,40.3586,"[1932, 2021]",,,489,matching,32531,resopsus,Res_L,3,-0.152666528,0.194578513
480,Home Supply Reservoir,Lone Tree,Colorado,CO,6331.472455,Main,,,,,,,,,,Irrigation,-105.126,40.343,"[2020, 2020]",,,,,39,remote,Res_M,6,,
481,Carter Lake,Carter Lake Dam 1,Colorado,CO,101014.84,Main,Sec,Sec,,,,,,,,Irrigation,-105.2149,40.3269,"[1954, 2023]",,,,,19610,resopsus,Res_M,4,,
482,,Big Sand Wash,Utah,UT,20623.25043,Main,,,,,,,,,,Irrigation,-110.2277,40.2956,"[2016, 2023]",,,,,2663,remote,Res_M,3,,
483,Bottle Hollow Reservoir,North Bottle Hollow,Utah,UT,11503.67,,,,,Main,,,,,,Recreation,-109.8784,40.2909,"[2016, 2023]",,,,,2818,remote,Res_M,2,,
484,,Stagecoach,Colorado,CO,16324.13,Main,,,,,,,,,,Irrigation,-106.833,40.2851,"[1984, 2024]",,,14667,matching,2798,remote,Res_R,1,0.886946639,-0.068103642
485,,Cortez Pipeline Tailings Dam,Nevada,NV,1904.44,,,,,,,,,,Main,Other,-116.7009,40.2659,,,,,,,,Res_M,1,,
486,,Button Rock,Colorado,CO,8109.801784,,,Main,,,,,,,,Water supply,-105.3701,40.2181,"[2016, 2023]",,,,,2888,remote,Res_M,4,,
487,Shadow Mountain,Shadow Mountain,Colorado,CO,18075,Main, , , , , , , , , ,Irrigation,-105.8454,40.2121,"[1953, 2024]",747,resopsus,5916,"hydroshare, matching, resopsus",21318,"hydroshare, resopsus",Res_R,2,0.99,-0.005
488,,Bor Starvation,Utah,UT,167785, , ,Main, , , , , , , ,Water supply,-110.4454,40.1912,"[1969, 2023]",18206,resopsus,18413,"hydroshare, resopsus",19456,"hydroshare, remote, resopsus",Res_R,3,0.56,0.013
489,,Pelican Lake,Utah,UT,11836.41,Main,,,,,,,,,,Irrigation,-109.6661,40.1895,,,,,,,,Res_M,2,,
490,,Union,Colorado,CO,16931.76,Main,,,,,,,,,,Irrigation,-105.0461,40.1747,"[2016, 2023]",,,,,2849,remote,Res_M,2,,
491,Willow Creek,Willow Creek,Colorado,CO,10596.02,Main,Sec,,,Sec,,,,,,Irrigation,-105.9451,40.148,"[1953, 2024]",2516,resopsus,5679,"matching, resopsus",24591,resopsus,Res_R,4,0.630445682,-0.118499028
492,Lake Granby,Granby,Colorado,CO,540118.89,Main,Sec,,,,,,,,,Irrigation,-105.856,40.1397,"[1951, 2024]",15695,resopsus,26500,"matching, resopsus",25581,"remote, resopsus",Res_R,2,0.774322534,-0.018616593
493,Strawberry,Soldier Creek,Utah,UT,1110166.06,Main,Sec,Sec,Sec,Sec,,Sec,,,,Irrigation,-111.0283,40.1371,"[1974, 2023]",11073,resopsus,15340,resopsus,14001,"remote, resopsus",Res_R,5,0.845921443,-0.010171337
494,Kenney Reservoir,Taylor Draw,Colorado,CO,4509.09,Sec,Sec,Sec,Main,Sec,,Sec,Sec,,Sec,Flood control,-108.7129,40.1081,"[1980, 2023]",,,943,matching,2754,remote,Res_M,2,,
495,,Boulder North Dam,Colorado,CO,9258.16,Sec,,Main,,Sec,,,,,,Water supply,-105.2121,40.0815,"[2016, 2023]",,,,,2881,remote,Res_M,3,,
496,,Yamcolo,Colorado,CO,6127.48,Main,,Sec,,,,,,,,Irrigation,-107.048,40.0558,"[2016, 2023]",,,,,2729,remote,Res_M,5,,
497,,Williams Fork,Colorado,CO,97590, , ,Main, , , , , , , ,Water supply,-106.2059,40.034,"[1959, 2024]",22296,resopsus,23891,"hydroshare, matching, resopsus",23551,"hydroshare, remote, resopsus",Res_R,2,0.4327,0.0173
498,,Valmont A,Colorado,CO,8793.63,Sec,,Main,,,,,,,,Water supply,-105.1854,40.0303,"[2018, 2022]",,,,,1483,remote,Res_M,4,,
499,Barker,Barker,Colorado,CO,8745.97,,Sec,Main,,Sec,,,,,,Water supply,-105.4865,39.9657,"[1980, 2022]",5751,matching,,,551,remote,Res_M,4,,
500,,Gross,Colorado,CO,42318, ,Sec,Main, ,Sec, , , , , ,Water supply,-105.3579,39.9495,"[1956, 2020]",6898,resopsus,16187,"hydroshare, resopsus",23351,"hydroshare, resopsus",Res_R,3,0.6264,-0.0061
501,,Marshall Lake,Colorado,CO,8017.614472,Main,,,,,,,,,,Irrigation,-105.2104,39.9479,"[2016, 2023]",,,,,2895,remote,Res_M,6,,
502,Green Mountain,Green Mountain,Colorado,CO,153576,Main,Sec, , ,Sec, , , , , ,Irrigation,-106.3288,39.8779,"[1951, 2024]",25125,resopsus,17728,"hydroshare, matching, resopsus",26414,"hydroshare, remote, resopsus",Res_R,5,0.5,0.002
503,,Mona,Utah,UT,15461,Main, , , , , , , , , ,Irrigation,-111.8712,39.8754,"[1980, 2024]",16398,matching,10198,hydroshare,10198,hydroshare,Res_R,2,0.86,-0.012
504,,Standley Lake,Colorado,CO,48764.55319,Main,,Sec,,,,,,,,Irrigation,-105.1154,39.8722,"[2016, 2023]",,,,,2906,remote,Res_M,4,,
505,,Ralston,Colorado,CO,11430, , ,Main, , , , , , , ,Water supply,-105.2415,39.8327,"[1970, 2022]",16136,resopsus,15891,"hydroshare, resopsus",19247,"hydroshare, remote, resopsus",Res_R,4,0.6691,-0.0238
506,Scofield,Scofield,Utah,UT,71921,Main, , , , , , , , , ,Irrigation,-111.1288,39.7888,"[1972, 2024]",16874,resopsus,17776,"hydroshare, matching, resopsus",14763,"hydroshare, remote, resopsus",Res_R,2,0.42,-0.021
507,Rifle Gap,Rifle Gap,Colorado,CO,15457.86,Main,,,,,,,,,,Irrigation,-107.7594,39.6286,"[1974, 2021]",9189,resopsus,9372,resopsus,9665,resopsus,Res_R,4,0.777852206,-0.203006487
508,Marston Lake,Marston Lake North Dam,Colorado,CO,19733.57,,,Main,,,,,,,,Water supply,-105.0579,39.6248,"[1987, 2020]",10660,resopsus,10660,resopsus,10660,resopsus,Res_R,4,0.793667996,0.024972505
509,,Dillon,Colorado,CO,264122, , ,Sec, ,Main, , , , , ,Recreation,-106.0604,39.6188,"[1963, 2024]",20656,resopsus,17225,"hydroshare, matching, resopsus",22033,"hydroshare, remote, resopsus",Res_R,4,0.7489,-0.0002
510,Electric Lake,Electric Lake Dam,Utah,UT,15518.47004,,,Main,,,,,,,,Water supply,-111.2147,39.6027,"[2016, 2023]",,,,,2761,remote,Res_M,4,,
511,Chatfield Lake,Chatfield Dam,Colorado,CO,56986,Sec, , ,Main,Sec, , , , , ,Flood control,-105.0562,39.555,"[1975, 2024]",17441,"usace, resopsus",17417,"hydroshare, resopsus, usace",17869,"hydroshare, remote, resopsus, usace",Res_R,1,0.8976,-0.0008
512,,Stillwater Point Dam,Nevada,NV,10745.94,Sec,,,Sec,Sec,,Main,,,,Other,-118.513,39.5132,,,,,,,,Res_M,3,,
513,,Fool Creek 1,Utah,UT,9460.423518,Main,,,,,,,,,,Irrigation,-112.3435,39.4727,"[2017, 2023]",,,,,2463,remote,Res_M,3,,
514,Lahontan,Lahontan,Nevada,NV,327400,Main,Sec, , , , , , , , ,Irrigation,-119.0688,39.4604,"[1980, 2024]",,,16401,"hydroshare, matching, resopsus",15063,"hydroshare, remote, resopsus",Res_R,3,0.7049,-0.0078
515,,Sevier Bridge,Utah,UT,96064.66,Main,,,,,,,,,,Irrigation,-112.0302,39.3727,"[1980, 2024]",,,16403,matching,2859,remote,Res_R,2,0.848864853,0.085072514
516,,Homestake Dam,Colorado,CO,374386.45,,,Main,,,,,,,,Water supply,-106.4616,39.3675,"[1980, 2024]",,,16403,matching,4374,resopsus,Res_R,4,0.707723885,-0.083154894
517,,Ruedi,Colorado,CO,103998,Main, , , , , ,Sec, , , ,Irrigation,-106.8154,39.3662,"[1969, 2023]",17040,resopsus,15080,"hydroshare, resopsus",19976,"hydroshare, remote, resopsus",Res_R,5,0.36,-0.007
518,Joes Valley,Joes Valley,Utah,UT,65031,Main, , ,Sec,Sec, , , , , ,Irrigation,-111.2746,39.2912,"[1970, 2021]",11667,resopsus,12391,"hydroshare, resopsus",11456,"hydroshare, resopsus",Res_R,3,0.78,-0.003
519,,Sugar Loaf,Colorado,CO,173273.26,Main,,,,Sec,,Sec,,,,Irrigation,-106.3714,39.2537,"[1969, 2023]",2910,resopsus,16663,resopsus,19927,"remote, resopsus",Res_R,3,0.880732775,0.093084782
520,,Giroux Tailings Impoundment,Nevada,NV,4976.84,,,,,,,,,,Main,Other,-115.0521,39.2271,,,,,,,,Res_M,1,,
521,,Vega,Colorado,CO,62451.79,Main,,,,,,,,,,Irrigation,-107.8096,39.2229,"[1974, 2023]",3764,resopsus,3795,resopsus,8278,"remote, resopsus",Res_L,2,-0.003210195,0.064343081
522,,Cheesman,Colorado,CO,81357, , ,Main, , , , , , , ,Water supply,-105.2739,39.21,"[1956, 2020]",23183,resopsus,23269,"hydroshare, resopsus",23304,"hydroshare, resopsus",Res_R,3,0.6571,-0.0007
523,,Gunnison,Utah,UT,23164.45,Main,,,,,,,,,,Irrigation,-111.7077,39.2073,"[1980, 2023]",,,273,matching,2826,remote,Res_M,2,,
524,,Marlette Lake Dam,Nevada,NV,12309.87,,,Main,,,,Sec,,,,Water supply,-119.905,39.1737,"[1980, 2024]",9858,resopsus,16002,"matching, resopsus",14828,resopsus,Res_R,3,0.685413686,0.042857817
525,,Scipio Lake,Utah,UT,8210.1,Main,,,,,,,,,,Irrigation,-112.0533,39.1212,"[2016, 2023]",,,,,2801,remote,Res_M,3,,
526,,Millsite,Utah,UT,17784.48,Main,,,,,,,,,,Irrigation,-111.1901,39.1018,"[2014, 2023]",,,693,matching,2856,remote,Res_L,2,0.935243542,-0.00180882
527,Weber Reservoir,Weber Dam,Nevada,NV,11475.02,Main,,,,Sec,,,,,,Irrigation,-118.8612,39.0442,"[1995, 2024]",,,9247,resopsus,8922,resopsus,Res_R,5,0.851347349,-0.079942978
528,Otero Reservoir,Clear Creek,Colorado,CO,11401.54715,,,Main,,Sec,,Sec,,,,Water supply,-106.2457,39.021,"[1980, 2023]",5751,matching,1675,matching,2826,remote,Res_M,4,,
529,,Antero,Colorado,CO,23746, , ,Main, ,Sec, , , , , ,Water supply,-105.8957,38.9893,"[1957, 2020]",22372,resopsus,23075,"hydroshare, resopsus",22931,"hydroshare, resopsus",Res_R,2,0.583,0.0061
530,,Spinney Mountain,Colorado,CO,54150, , ,Main, ,Sec, , , , , ,Water supply,-105.6236,38.9736,"[1980, 2020]",11167,resopsus,14820,"hydroshare, matching, resopsus",11167,"hydroshare, resopsus",Res_R,4,0.554,0.0008
531,Paonia,Paonia,Colorado,CO,16300,Main, , ,Sec,Sec, , , , , ,Irrigation,-107.3504,38.9429,"[1974, 2023]",15583,resopsus,10829,hydroshare,13283,"hydroshare, remote, resopsus",Res_R,4,0.82,0
532,,North Catamount,Colorado,CO,17565.91269,,,Main,,,,,,,,Water supply,-105.0698,38.9223,"[2016, 2023]",,,,,2806,remote,Res_M,4,,
533,Eleven Mile,Eleven Mile Canyon,Colorado,CO,105664, , ,Main, , , , , , , ,Water supply,-105.4782,38.9023,"[1980, 2020]",8495,resopsus,14812,"hydroshare, matching, resopsus",8495,"hydroshare, resopsus",Res_R,2,0.7153,0.0147
534,,Pruess Lake,Utah,UT,3153.89,Main,,,,,,,,,,Irrigation,-114.0146,38.8931,,,,,,,,Res_M,2,,
535,Bodie Creek Reservoir,Bodie Dam,Nevada,NV,48786.53875,Sec,Sec,Main,Sec,Sec,,,,,,Water supply,-119.7354,38.8438,"[2016, 2023]",,,,,2893,remote,Res_M,3,,
536,Taylor Park,Taylor Park,Colorado,CO,106133,Main, , , , , , , , , ,Irrigation,-106.6029,38.8246,"[1958, 2024]",,,23069,"hydroshare, matching, resopsus",23809,"hydroshare, remote, resopsus",Res_R,4,0.46,-0.013
537,Crawford,Crawford,Colorado,CO,14621,Main, , , , , , , , , ,Irrigation,-107.6062,38.6896,"[1974, 2024]",7112,resopsus,4352,"hydroshare, matching",7373,"hydroshare, remote, resopsus",Res_R,4,0.94,-0.002
538,,RMG West Tailings Dam,Nevada,NV,2305.14,,,,,,,,,,Main,Other,-117.1187,38.684,,,,,,,,Res_M,1,,
539,,Johnson,Utah,UT,22161.81671,Main,,,,,,,,,,Irrigation,-111.6326,38.6102,"[2016, 2023]",,,,,2759,remote,Res_M,2,,
540,Gould,Onion Valley,Colorado,CO,11174.64613,Main,,,,,,,,,,Irrigation,-107.5885,38.6027,"[2016, 2023]",,,,,2694,remote,Res_M,3,,
541,Blue Mesa,Blue Mesa,Colorado,CO,829145,Sec,Main, ,Sec,Sec, , , , , ,Hydroelectricity,-107.3338,38.4538,"[1966, 2021]",19050,resopsus,19051,"hydroshare, resopsus",19063,"hydroshare, resopsus",Res_R,3,0.3,-0.014
542,Morrow Point,Morrow Point,Colorado,CO,118687,Main,Sec, , ,Sec, , , , , ,Hydroelectricity,-107.5362,38.4529,"[1970, 2024]",18320,resopsus,19719,"hydroshare, matching, resopsus",18321,"hydroshare, resopsus",Res_R,2,0.89,0
543,,Tonopah Tails,Nevada,NV,,,,,,,,,,,Main,Other,-117.4598,38.416,,,,,,,,Res_M,1,,
544,,New Spicer Meadow,California,CA,191340.43,,Main,,,,,,,,,Hydroelectricity,-119.9973,38.3937,"[1992, 2023]",,,10957,matching,11439,"remote, resopsus",Res_R,2,0.696435353,-0.151117239
545,,Donnells,California,CA,64801, ,Main, , , , , , , , ,Hydroelectricity,-119.9588,38.3321,"[1980, 2020]",,,14152,"hydroshare, resopsus",14609,"hydroshare, resopsus",Res_R,3,0.8821,-0.0016
546,Bridgeport Reservoir,Bridgeport,California,CA,43340,Main, , , , , , , , , ,Irrigation,-119.2128,38.3252,"[1980, 2024]",,,16402,"hydroshare, matching, resopsus",16066,"hydroshare, remote, resopsus",Res_R,3,0.6663,0.0274
547,,Piute,Utah,UT,74390.4,Main,,,,,,,,,,Irrigation,-112.1911,38.3227,"[1980, 2023]",,,8673,matching,2834,remote,Res_M,2,,
548,,Relief,California,CA,17727.05,,,Main,,,,,Sec,,Sec,Water supply,-119.7329,38.28,"[1992, 2021]",,,162,matching,10298,resopsus,Res_L,4,-2.617590525,0.175315418
549,Silver Jack,Silver Jack,Colorado,CO,13557,Main, , , , , , , , , ,Irrigation,-107.5412,38.2312,"[1973, 2021]",13379,resopsus,14934,"hydroshare, resopsus",11561,"hydroshare, resopsus",Res_R,2,0.89,-0.004
550,,Rocky Ford,Utah,UT,26409.28,Main,,,,,,,,,,Irrigation,-112.8338,38.2162,"[1980, 2023]",,,8673,matching,2834,remote,Res_M,3,,
551,Pinecrest Lake,Main Strawberry,California,CA,18541.82,,,Main,,,,,Sec,,Sec,Water supply,-119.9851,38.1978,"[1992, 2023]",,,256,matching,11060,"remote, resopsus",Res_L,4,0.025035496,-0.052493679
552,,Otter Creek,Utah,UT,61823.08,Main,,,,,,,,,,Irrigation,-112.0188,38.1695,"[2016, 2023]",,,,,2777,remote,Res_M,2,,
553,,Gurley,Colorado,CO,56018.55472,Main,,,,,,,,,,Irrigation,-108.2479,38.0346,"[2016, 2023]",,,,,2830,remote,Res_M,2,,
554,Lloyd Lake,Cherry Valley,California,CA,274433,Main, ,Sec, , , , , , , ,Irrigation,-119.9121,37.9788,"[1980, 2024]",,,16403,"hydroshare, matching, resopsus",16066,"hydroshare, remote, resopsus",Res_R,3,0.5594,-0.0662
555,,Lake Eleanor,California,CA,62191.42,,,Main,,,Sec,,Sec,,Sec,Water supply,-119.8804,37.9748,"[1980, 2024]",,,16403,"matching, resopsus",2876,remote,Res_R,1,0.821018359,-0.132236496
556,,Saddlebag Lake,California,CA,23760.46,,Main,,,Sec,,,,,,Hydroelectricity,-119.272,37.9693,"[1997, 2023]",,,9496,matching,2754,remote,Res_R,2,0.872855527,-0.144635015
557,Hetch Hetchy Reservoir,O'Shaughnessy,California,CA,626435, , ,Main, , ,Sec, ,Sec, ,Sec,Water supply,-119.7879,37.9496,"[1980, 2024]",,,16403,"hydroshare, matching, resopsus",11304,"hydroshare, remote, resopsus",Res_R,5,0.6728,-0.0787
558,,Continental,Colorado,CO,24592.11,Main,,,,Sec,,Sec,,,,Irrigation,-107.2065,37.8844,"[1980, 2023]",,,6847,matching,2730,remote,Res_M,3,,
559,,Grant Lake,California,CA,47733.35325,,,Main,,,Sec,,,,Sec,Water supply,-119.1073,37.8587,"[2016, 2023]",,,,,2846,remote,Res_M,3,,
560,,Santa Maria,Colorado,CO,32945.93,Main,,,,Sec,,Sec,,,,Irrigation,-107.0976,37.805,"[2016, 2023]",,,,,2803,remote,Res_M,3,,
561,,Groundhog,Colorado,CO,30052.771,Main,,,,Sec,,Sec,Sec,,,Irrigation,-108.2913,37.7906,"[2016, 2023]",,,,,2782,remote,Res_M,3,,
562,,Gem Lake,California,CA,19413.20759,Main,,,,,,,,,,Irrigation,-119.1497,37.7505,"[1999, 2023]",,,8437,matching,1871,remote,Res_R,5,0.293447148,-0.136387369
563,Panguitch Lake Reservoir,Panguitch Lake,Utah,UT,23753.89,Main,,,,,,,,,,Irrigation,-112.6313,37.7224,,,,,,,,Res_M,2,,
564,Farmers Union,Rio Grande,Colorado,CO,80859.83524,Main,,,,Sec,,Sec,,,,Irrigation,-107.2703,37.7215,"[1980, 2023]",,,6847,matching,2741,remote,Res_M,2,,
565,,Recapture Creek,Utah,UT,7494.12,Main,,,,,,,,,,Irrigation,-109.4373,37.6622,,,,,,,,Res_M,6,,
566,Lake Crowley,Long Valley,California,CA,125260.13,,,,,Main,,,,,,Recreation,-118.7078,37.5878,"[2016, 2023]",,,,,2846,remote,Res_M,4,,
567,McPhee,McPhee,Colorado,CO,383150,Main,Sec,Sec, ,Sec, ,Sec, , , ,Irrigation,-108.5721,37.5788,"[1984, 2023]",13448,resopsus,13456,"hydroshare, resopsus",14517,"hydroshare, remote, resopsus",Res_R,8,0.81,-0.007
568,Electra Lake,Cascade 2,Colorado,CO,60486.2629,,Main,,,Sec,,Sec,,,,Hydroelectricity,-107.8056,37.548,"[2016, 2023]",,,,,2821,remote,Res_M,2,,
569,Upper Enterprise,Upper Enterprise,Utah,UT,7538.49,Main,,,,,,,,,,Irrigation,-113.8617,37.5179,"[2016, 2023]",,,,,2552,remote,Res_M,3,,
570,,Williams Creek,Colorado,CO,6686.19,,,,,Main,,Sec,,,,Recreation,-107.2227,37.5039,"[2016, 2023]",,,,,2753,remote,Res_M,2,,
571,,Narraguinnep,Colorado,CO,13878.6,Main,,,,Sec,,Sec,,,,Irrigation,-108.6278,37.4832,,,,,,,,Res_M,2,,
572,Jackson Gulch,Jackson Gulch,Colorado,CO,10258,Main, ,Sec, ,Sec, , , , , ,Irrigation,-108.2746,37.3996,"[1960, 2023]",20917,resopsus,20594,"hydroshare, resopsus",21977,"hydroshare, remote, resopsus",Res_R,3,0.77,0
573,,Mountain Home,Colorado,CO,14212.26,Main,,,,Sec,,Sec,,,,Irrigation,-105.3922,37.3929,,,,,,,,Res_M,4,,
574,Lemon,Lemon,Colorado,CO,39811,Main,Sec, ,Sec, , , , , , ,Irrigation,-107.6621,37.3829,"[1963, 2023]",20865,resopsus,20867,"hydroshare, resopsus",21910,"hydroshare, remote, resopsus",Res_R,5,0.65,-0.001
575,Vallecito,Vallecito,Colorado,CO,125637,Main, , , ,Sec, , , , , ,Irrigation,-107.5738,37.3787,"[1941, 2023]",29125,resopsus,29125,"hydroshare, resopsus",30184,"hydroshare, remote, resopsus",Res_R,4,0.59,0.001
576,Lake Thomas A. Edison,Vermilion Valley,California,CA,182192.09,,,Main,,,,,Sec,,Sec,Water supply,-118.9854,37.3702,"[1980, 2023]",,,15979,matching,2786,remote,Res_R,3,0.671361804,0.008045437
577,Alamosa River Reservoir,Terrace,Colorado,CO,13244.91,Main,,,,,,,,,,Irrigation,-106.2856,37.3578,"[1980, 2023]",1003,matching,,,2826,remote,Res_M,2,,
578,Platoro Reservoir,Platoro,Colorado,CO,50951.69,Main,,,,Sec,,,,,,Irrigation,-106.5457,37.3502,"[1980, 2023]",,,16071,matching,2742,remote,Res_R,1,0.876171801,0.029033371
579,,Mammoth Pool,California,CA,45240.47,,,Main,,,,,Sec,,Sec,Water supply,-119.317,37.3247,"[1980, 2023]",,,11622,matching,2833,remote,Res_R,1,0.97835608,0.050189948
580,Bass Lake,Crane Val Stor,California,CA,65606.96,,,Main,,,,,Sec,,Sec,Water supply,-119.527,37.2938,"[1986, 2023]",,,12783,matching,2898,remote,Res_R,1,0.880918262,-0.046910795
581,Florence,Florence Lake,California,CA,47949.73,Sec,,Main,,,,,Sec,,Sec,Water supply,-118.9701,37.2726,"[1980, 2023]",,,273,matching,2722,remote,Res_M,4,,
582,,Gunlock,Utah,UT,6834.06,Sec,Main,,,Sec,,,,,,Hydroelectricity,-113.777,37.2527,"[2016, 2023]",,,,,2809,remote,Res_M,1,,
583,,La Jara,Colorado,CO,4525.09,Sec,,,,Main,,Sec,,,,Recreation,-106.3414,37.2452,"[2016, 2023]",,,,,2689,remote,Res_M,5,,
584,Huntington Lake 1,Huntington Lake 1,California,CA,109738.44,Sec,,Main,,,,,Sec,,Sec,Water supply,-119.2164,37.2332,"[1986, 2023]",,,13514,matching,2785,remote,Res_R,3,0.170767344,0.538056392
585,H.V. Eastman Lake,Buchanan Dam,California,CA,145460,Sec, , ,Main,Sec, , , , , ,Flood control,-119.9854,37.2204,"[1980, 2023]",8857,resopsus,13279,"hydroshare, matching, resopsus",12190,"hydroshare, remote, resopsus",Res_R,2,0.6315,0.0031
586,,Sabrina,California,CA,8235.43,Main,,,,,,,,,,Irrigation,-118.6149,37.2094,"[1985, 2023]",,,13879,matching,2788,remote,Res_R,1,0.918829183,-0.070931799
587,,Quail Creek,Utah,UT,39399.21,Main,,,,,,,,,,Irrigation,-113.3822,37.1855,"[2016, 2023]",,,,,2826,remote,Res_M,3,,
588,South Lake,Hillside,California,CA,4484.21,Main,,,,,,,,,,Irrigation,-118.5692,37.1685,"[1985, 2023]",,,13879,matching,2763,remote,Res_R,1,0.910527583,-0.08036054
589,Redinger Lake,Big Creek 7,California,CA,16897.08,Sec,,Main,,,,,Sec,,Sec,Water supply,-119.4503,37.1449,"[1980, 2023]",,,15979,matching,2898,remote,Res_R,1,0.997915912,0.003428781
590,Shaver,Shaver Lake,California,CA,163232.6,Sec,,Main,,,,,Sec,,Sec,Water supply,-119.3019,37.1438,"[1986, 2023]",,,13514,matching,2881,remote,Res_R,2,0.860978619,-0.001309843
591,,Sanchez,Colorado,CO,28056.29,Main,,,,Sec,,Sec,,,,Irrigation,-105.4121,37.1129,,,,,,,,Res_M,3,,
592,Hensley Lake,Hidden Dam,California,CA,88560,Sec, , ,Main,Sec, , , , , ,Flood control,-119.8829,37.1121,"[1980, 2023]",8836,resopsus,13257,"hydroshare, matching, resopsus",12286,"hydroshare, remote, resopsus",Res_R,2,0.4605,0.0333
593,,Courtright,California,CA,122207.69,,Main,,,,,,,,,Hydroelectricity,-118.973,37.0812,"[1980, 2023]",,,15867,matching,8197,"remote, resopsus",Res_R,2,0.705603464,-0.008168382
594,,Tinemaha,California,CA,5364.283709,,,Main,,Sec,Sec,,,,Sec,Water supply,-118.2216,37.0535,"[1980, 2023]",,,1734,matching,2884,remote,Res_M,5,,
595,Millerton Lake,Friant,California,CA,529758,Main, , ,Sec, , , , , , ,Irrigation,-119.7038,37.0037,"[1985, 2023]",9397,resopsus,11613,"hydroshare, matching, resopsus",12300,"hydroshare, remote, resopsus",Res_R,3,0.7384,0.0123
596,,Wishon Main,California,CA,128117.79,,Main,,,,,,,,,Hydroelectricity,-118.9674,37.0039,"[1986, 2021]",,,7214,matching,7088,resopsus,Res_L,2,0.089426663,0.118733111
597,Lake Powell,Glen Canyon,Arizona,AZ,23852940,Sec,Main, , ,Sec, , , , ,Sec,Hydroelectricity,-111.4862,36.9412,"[1963, 2021]",21143,resopsus,21140,"hydroshare, resopsus",21034,"hydroshare, resopsus",Res_R,4,0.45,-0.003
598,,Big Dry Creek,California,CA,1466.7,,,,Sec,,,Main,,,,Other,-119.6645,36.8777,,,,,,,,Res_M,3,,
599,,Costilla Dam,New Mexico,NM,16499.63,Main,,,,,,,,,,Irrigation,-105.2781,36.8773,"[1980, 2024]",7771,matching,8983,resopsus,10868,resopsus,Res_R,2,0.756593969,-0.118520326
600,Pine Flat Lake,Pine Flat Dam,California,CA,998852,Sec,Sec, ,Main,Sec, , , , , ,Flood control,-119.3246,36.8329,"[1980, 2024]",9032,resopsus,15541,"hydroshare, matching, resopsus, usace",12390,"hydroshare, resopsus, usace",Res_R,3,0.8633,0.0031
601,Navajo,Navajo,New Mexico,NM,1667732,Main, , ,Sec,Sec, , , , , ,Irrigation,-107.6088,36.8038,"[1962, 2024]",21395,resopsus,22789,"hydroshare, matching, resopsus",22455,"hydroshare, remote, resopsus",Res_R,3,0.36,0.002
602,,Stone Lake,New Mexico,NM,3380.6,,,,,Main,,,,,,Recreation,-106.8758,36.7113,"[2016, 2023]",,,,,2842,remote,Res_M,2,,
603,Heron,Heron,New Mexico,NM,343454,Sec, ,Main, , , , , , , ,Water supply,-106.7054,36.6662,"[1974, 2023]",,,4688,"hydroshare, resopsus",17869,"hydroshare, remote, resopsus",Res_R,4,0.27,0.019
604,,El Vado Reservoir Dam,New Mexico,NM,184704,Main, , , , , , , , , ,Irrigation,-106.7329,36.5954,"[1974, 2024]",,,18227,"hydroshare, matching, resopsus",15800,"hydroshare, remote, resopsus",Res_R,5,0.5,-0.005
605,Lake Kaweah,Terminus Dam,California,CA,185543,Sec,Sec, ,Main,Sec, , , , , ,Flood control,-119.0012,36.4196,"[1980, 2024]",8881,resopsus,13958,"hydroshare, matching, resopsus, usace",12292,"hydroshare, resopsus, usace",Res_R,4,0.7553,0.0192
606,Abiquiu Reservoir,Abiquiu Dam,New Mexico,NM,196588,Sec, ,Sec,Main, , , , , ,Sec,Flood control,-106.4288,36.2379,"[1974, 2024]",1879,usace,16401,"hydroshare, matching, resopsus, usace",18381,"hydroshare, resopsus, usace",Res_R,2,0.71,-0.032
607,,Haiwee,California,CA,28228.2,Main,,,,,,,,,,Irrigation,-117.9482,36.1399,,,,,,,,Res_M,3,,
608,Lake Adair,Lake Las Vegas,Nevada,NV,8025.76,,,,,Main,,,,,,Recreation,-114.9115,36.1188,"[2002, 2002]",,,92,matching,,,Res_M,2,,
609,Success Lake,Success Dam,California,CA,92796,Sec,Sec, ,Main,Sec, , , , , ,Flood control,-118.9212,36.0621,"[1980, 2023]",8897,resopsus,5678,hydroshare,12096,"hydroshare, remote, resopsus",Res_R,2,0.5412,0.0071
610,Lake Mead,Hoover,Nevada,NV,29903948.37,Sec,Sec,Main,,,,,,,,Water supply,-114.735,36.0182,"[1934, 2022]",,,32342,"matching, resopsus",30561,resopsus,Res_R,3,0.618255938,0.005736373
611,,Storrie Dam,New Mexico,NM,21477.29,Main,,,,,,,,,,Irrigation,-105.2288,35.6655,,,,,,,,Res_M,2,,
612,Isabella Lake,Isabella Dam,California,CA,562474,Sec,Sec, ,Main,Sec, , , , , ,Flood control,-118.4829,35.6496,"[1980, 2024]",15096,"usace, matching, resopsus",14585,"hydroshare, matching, resopsus, usace",12246,"hydroshare, resopsus, usace",Res_R,4,0.7037,-0.0084
613,Cochiti Lake,Cochiti,New Mexico,NM,81592,Sec, , ,Main,Sec, , , , ,Sec,Flood control,-106.3188,35.6204,"[1970, 2024]",729,usace,18745,"hydroshare, resopsus, usace",17560,"hydroshare, resopsus, usace",Res_R,1,0.88,0.002
614,Jemez Canyon Reservoir,Jemez Canyon Dam,New Mexico,NM,3501, , , ,Main, , , , , ,Sec,Flood control,-106.5496,35.3954,"[1974, 2024]",,,5521,"hydroshare, matching",18252,"hydroshare, remote, resopsus",Res_R,2,0.88,0.003
615,,Buena Vista,California,CA,205029.32,Main,,,,,,,,,,Irrigation,-119.2911,35.2317,,,,,,,,Res_M,4,,
616,Lake Mohave,Lake Mohave,Arizona,AZ,1808400, ,Main, , , , , , , , ,Hydroelectricity,-114.5728,35.2023,"[1949, 2021]",,,26267,"hydroshare, resopsus",25907,"hydroshare, resopsus",Res_R,3,0.6954,0.0078
617,Upper Lake Mary,Upper Lake Mary,Arizona,AZ,18342.34,,,Main,,,,,,,,Water supply,-111.5339,35.0796,,,,,,,,Res_M,4,,
618,,Cholla Fly Ash Pond,Arizona,AZ,9577.34,,,,,,,,,,Main,Other,-110.2929,34.9327,,,,,,,,Res_M,2,,
619,,Pyramid,California,CA,170949.38,,Sec,Main,Sec,Sec,,,,,,Water supply,-118.7647,34.645,"[1988, 2023]",9130,matching,11686,matching,4953,resopsus,Res_R,4,0.437675937,0.234633904
620,Lake Cachuma,Bradbury,California,CA,200582.56,Sec,,Main,,,,,,,,Water supply,-119.9795,34.5854,"[1980, 2024]",16379,matching,3595,matching,6854,"remote, resopsus",Res_L,3,0.074831993,0.06574797
621,Bouquet Reservoir,Bouquet Canyon,California,CA,32001.61578,,,Main,,,Sec,,,,Sec,Water supply,-118.3845,34.5781,"[2016, 2023]",,,,,2906,remote,Res_M,2,,
622,,Elderberry,California,CA,15609.43,Main,,,,,,,,,,Irrigation,-118.6324,34.5624,"[1988, 2023]",1825,matching,,,2553,remote,Res_M,2,,
623,Blue Ridge Reservoir,Blue Ridge,Arizona,AZ,16399.91328,,Main,Sec,,,,,,,,Hydroelectricity,-111.1865,34.5529,"[1980, 2023]",,,,,7288,resopsus,Res_M,2,,
624,,Castaic,California,CA,315996.47,Main,,,,,,,,,,Irrigation,-118.6053,34.5204,"[1994, 2023]",,,9802,matching,4953,resopsus,Res_R,3,0.876340765,-0.04714862
625,Lake Piru,Santa Felicia,California,CA,93900.02,Sec,Sec,Main,,Sec,,,,,,Water supply,-118.7534,34.4621,"[1980, 2023]",,,14959,resopsus,13592,"remote, resopsus",Res_R,3,0.772644229,-0.131980556
626,Lake Casitas,Casitas,California,CA,161716.46,Main,,Sec,,Sec,,,,,,Irrigation,-119.3356,34.3732,"[1980, 2023]",,,1003,matching,2882,remote,Res_M,5,,
627,,Lyman,Arizona,AZ,31800.22,Main,,,,,,,,,,Irrigation,-109.3802,34.3684,"[1980, 2023]",,,973,matching,13728,"remote, resopsus",Res_L,3,-0.001290762,0.111035191
628,Lower Van Norman Lake,Lower San Fernando,California,CA,3177.05,,,Main,,,Sec,,,,Sec,Water supply,-118.4813,34.2979,,,,,,,,Res_M,5,,
629,Lake Havasu,Lake Havasu,Arizona,AZ,680100,Sec,Sec,Main, , , , , , , ,Water supply,-114.1387,34.2987,"[1935, 2023]",,,32283,"hydroshare, matching, resopsus",30588,"hydroshare, remote, resopsus",Res_R,1,0.7687,0.0067
630,,Copper Basin,California,CA,20819.47,,,Main,,,Sec,,,,Sec,Water supply,-114.2235,34.2854,,,,,,,,Res_M,2,,
631,,Lake Arrowhead,California,CA,50101.84108,Main,,,,,,,,,,Irrigation,-117.1703,34.263,"[2008, 2023]",1109,matching,,,2901,remote,Res_M,3,,
632,Big Bear Lake,Bear Valley,California,CA,278865.26,Main,,,,,,,,,,Irrigation,-116.9757,34.2427,"[2006, 2023]",,,6079,matching,2866,remote,Res_L,3,-0.085691769,-0.095844234
633,Bard Lake,Wood Ranch,California,CA,12280.84496,,,Main,,,Sec,,,,Sec,Water supply,-118.8271,34.2396,"[2016, 2023]",,,,,2916,remote,Res_M,4,,
634,,San Gabriel 1,California,CA,11282.56974,,,Main,Sec,,,Sec,,,Sec,Water supply,-117.862,34.2078,"[2021, 2023]",,,,,977,remote,Res_M,4,,
635,,Morris,California,CA,22789,Sec,,Main,,,Sec,,,,Sec,Water supply,-117.8805,34.1773,"[1980, 2024]",,,16403,matching,2901,remote,Res_R,2,0.616861467,0.088863275
636,,Encino,California,CA,8293.45,,,Main,,,Sec,,,,Sec,Water supply,-118.5146,34.147,"[2016, 2023]",,,,,2896,remote,Res_M,4,,
637,,Westlake Reservoir,California,CA,6503.42,Main,,,,,,,,,,Irrigation,-118.8344,34.1275,,,,,,,,Res_M,6,,
638,,Stone Canyon,California,CA,7195.27,,,Main,,,Sec,,,,Sec,Water supply,-118.453,34.1073,"[2018, 2022]",,,,,1442,remote,Res_M,5,,
639,,Puddingstone,California,CA,5800.23,,,Main,Sec,,,Sec,,,Sec,Water supply,-117.8052,34.0893,,,,,,,,Res_M,2,,
640,Horseshoe Lake,Horseshoe,Arizona,AZ,130900.15,Sec,,Main,,,,,,,,Water supply,-111.7104,33.9854,"[1980, 2024]",16401,matching,,,15706,"remote, resopsus",Res_L,2,0.725521051,-0.009201995
641,,Big Lake,Arizona,AZ,10133.91,,,,,Main,,,,,,Recreation,-109.4165,33.8877,,,,,,,,Res_M,2,,
642,,Mathews,California,CA,174667.44,Main,,,,,,,,,,Irrigation,-117.4478,33.8517,"[2016, 2023]",,,,,2901,remote,Res_M,5,,
643,,Perris,California,CA,127735.94,Main,,,,,,,,,,Irrigation,-117.1823,33.8445,"[1979, 2024]",,,12217,matching,16100,"remote, resopsus",Res_R,2,0.657378844,0.388869231
644,Bartlett Lake,Bartlett,Arizona,AZ,178600, , ,Main, , , , , , , ,Water supply,-111.6298,33.8172,"[1980, 2024]",,,16401,"hydroshare, matching, resopsus",15341,"hydroshare, remote, resopsus",Res_R,3,0.7763,0.0589
645,Irvine Lake,Santiago Creek,California,CA,12202.96542,Main,,,,,,,,,,Irrigation,-117.7241,33.7844,"[2016, 2022]",,,,,2296,remote,Res_M,2,,
646,,Railroad Canyon,California,CA,4167.94,Main,,,,,,,,,,Irrigation,-117.2747,33.6777,"[1980, 2024]",,,16403,matching,2890,remote,Res_R,1,0.592725074,-0.166536765
647,Roosevelt Lake,Theodore Roosevelt,Arizona,AZ,1331028.6,Main,Sec,,,Sec,,,,,,Irrigation,-111.1562,33.6771,"[2016, 2023]",,,,,2921,remote,Res_M,4,,
648,,Diamond Valley Lake,California,CA,809456.39,,,,,Main,,,,,,Recreation,-117.0633,33.6688,"[1983, 2024]",,,9554,matching,6275,resopsus,Res_R,5,0.727430219,0.080072912
649,,Lake Hemet,California,CA,11788.5173,Main,,,,,,,,,,Irrigation,-116.7053,33.662,"[1980, 2023]",,,2469,matching,2911,remote,Res_M,2,,
650,Apache Lake,Horse Mesa,Arizona,AZ,132763.21,,,,,,,,,,,,-111.3433,33.5911,"[2016, 2023]",,,,,2921,remote,Res_M,4,,
651,,Robert A. Skinner,California,CA,30648.99,,,Main,,Sec,Sec,,,,Sec,Water supply,-117.0713,33.5855,"[1987, 2024]",,,12857,matching,2903,remote,Res_R,1,0.692753655,0.004633847
652,Saguaro Lake,Stewart Mountain,Arizona,AZ,31133.88,Main,Sec,Sec,,,,,,,,Irrigation,-111.5323,33.5696,"[1983, 2024]",,,15033,matching,2922,remote,Res_R,2,0.818423974,0.018753712
653,Canyon Lake,Mormon Flat,Arizona,AZ,23877.08,,,,,,,,,,,,-111.4396,33.5509,"[2016, 2023]",,,,,2922,remote,Res_M,2,,
654,,Vail,California,CA,50269.88,Main,,,,,,,,,,Irrigation,-116.9755,33.4964,"[1980, 2023]",1825,matching,14612,resopsus,13180,"remote, resopsus",Res_R,2,0.873440263,-0.564546817
655,Lake Henshaw,Henshaw,California,CA,36311.8,Main,,,,,,,,,,Irrigation,-116.7597,33.2399,"[2016, 2023]",,,,,2607,remote,Res_M,3,,
656,San Carlos Lake,Coolidge,Arizona,AZ,499000,Main,Sec, , ,Sec, , , , , ,Irrigation,-110.5229,33.1763,"[1980, 2024]",,,16401,"hydroshare, matching, resopsus",4514,"hydroshare, remote",Res_R,3,0.5313,0.0063
657,Elephant Butte Reservoir,Elephant Butte Dike,New Mexico,NM,916681,Sec,Sec, ,Main,Sec, , , , , ,Flood control,-107.1896,33.1579,"[1915, 2024]",6257,resopsus,39503,"hydroshare, matching, resopsus",39578,"hydroshare, remote, resopsus",Res_R,4,0.48,-0.017
658,,Sutherland,California,CA,16505.84,Sec,,Main,,,Sec,,,,Sec,Water supply,-116.7854,33.1172,"[1980, 2024]",,,16403,matching,2903,remote,Res_L,2,0.934320644,-0.565347084
659,,Lake Hodges,California,CA,10335.71,,,Main,,,Sec,,,,Sec,Water supply,-117.1263,33.0464,"[2016, 2023]",,,,,2903,remote,Res_M,4,,
660,,Ramona,California,CA,5261.34,Main,,,,,,,,,,Irrigation,-116.9962,33.0245,"[2016, 2023]",,,,,2904,remote,Res_M,5,,
661,,Cuyamaca,California,CA,2792.449193,Main,,,,,,,,,,Irrigation,-116.5847,32.9891,"[2016, 2023]",,,,,2785,remote,Res_M,3,,
662,,San Vicente,California,CA,216199.3214,Sec,,Main,,,Sec,,,,Sec,Water supply,-116.9271,32.9148,"[1987, 2023]",,,,,10077,resopsus,Res_M,2,,
663,Senator Wash,Senator Wash,California,CA,7797.66,,Main,,,,,,,,Sec,Hydroelectricity,-114.4812,32.9066,,,,,,,,Res_M,1,,
664,Caballo,Caballo,New Mexico,NM,90760,Main,Sec, ,Sec, , , , , , ,Irrigation,-107.2954,32.8996,"[1938, 2023]",6066,resopsus,14925,"hydroshare, matching, resopsus",31339,"hydroshare, remote, resopsus",Res_R,3,0.73,-0.005
665,,El Capitan,California,CA,113199.8562,,,Main,,,Sec,,,,Sec,Water supply,-116.8085,32.884,"[1987, 2023]",,,,,8040,resopsus,Res_M,2,,
666,Lake Jennings,Chet Harritt,California,CA,9095.87,Main,,,,,,,,,,Irrigation,-116.8877,32.8633,"[2016, 2023]",,,,,2904,remote,Res_M,3,,
667,,Lake Loveland,California,CA,17179.03,Main,,,,,,,,,,Irrigation,-116.7865,32.7853,"[2016, 2023]",,,,,2904,remote,Res_M,2,,
668,,Sweetwater Main,California,CA,15323.07,Main,,,,,,,,,,Irrigation,-117.0049,32.6928,"[2016, 2023]",,,,,2904,remote,Res_M,2,,
669,,Morena,California,CA,16728.3,,,Main,,,Sec,,,,Sec,Water supply,-116.5464,32.6862,"[2017, 2023]",,,,,2488,remote,Res_M,4,,
670,,Barrett,California,CA,23546.31,,,Main,,,Sec,,,,Sec,Water supply,-116.6694,32.6813,"[1980, 2023]",,,10135,matching,2903,remote,Res_M,2,,
671,Lower Otay Reservoir,Savage,California,CA,29190.38,,,Main,,,Sec,,,,Sec,Water supply,-116.9274,32.6148,"[1985, 2024]",14303,matching,,,2904,remote,Res_L,2,0.004895469,0.293333306
674,Hudspeth Regulating Reservoir,Diablo Reservoir Levee,Texas,TX,3023.39,Main,,,,,,,,,,Irrigation,-105.7854,31.2197,,,,,,,,Res_M,5,,
727,,Lake Metigoshe,North Dakota,ND,16133.19,,,,,Main,,Sec,,,,Recreation,-100.3562,48.9565,"[1980, 1981]",,,638,matching,,,Res_M,2,,
728,,Roseau River Wildlife Management Area Pool 2,Minnesota,MN,2067.22,,,,,,,,,,Main,Other,-96.2575,48.9492,,,,,,,,Res_M,2,,
729,,Des Lacs 2,North Dakota,ND,63965.26,,,,Main,,,,,,,Flood control,-102.1053,48.699,,,,,,,,Res_M,2,,
730,J. Clark Salyer Reservoir,J. Clark Salyer Dam,North Dakota,ND,15616.03,,,,Main,,,,,,,Flood control,-100.7257,48.6215,,,,,,,,Res_M,1,,
731,Rainy,Kettle Falls,Minnesota,MN,702482.81,,,,,Main,,,,,Sec,Recreation,-93.356,48.619,"[2011, 2024]",,,4790,matching,,,Res_M,2,,
732,Lake Darling,Dam 83,North Dakota,ND,136881.1,,,,Main,,,,,,,Flood control,-101.5771,48.4614,,,,,,,,Res_M,4,,
733,,Homestead Unit Intake,Montana,MT,4280.19,,,,,,,,,,Main,Other,-104.5842,48.3734,,,,,,,,Res_M,2,,
734,Agassiz Pool,Pool 27,Minnesota,MN,26652.54407,,,,,,,,,,Main,Other,-96.006,48.3152,"[2008, 2023]",,,685,matching,2848,remote,Res_M,4,,
735,Lake Alice,Lake Alice Dam,North Dakota,ND,11674.27,,,,,Sec,,Main,,,,Other,-99.1762,48.2831,"[1998, 1999]",,,427,matching,,,Res_M,3,,
736,Nett Lake River,Nett Lake,Minnesota,MN,59019.91,,,,,Main,,Sec,,,,Recreation,-93.1634,48.1051,"[1995, 2023]",,,3652,matching,2786,remote,Res_M,4,,
737,,Pelican Lake,Minnesota,MN,135729.05,,,,,,,,,,Main,Other,-92.8392,48.0413,"[2016, 2023]",,,,,2786,remote,Res_M,1,,
738,,Wind Lake,Minnesota,MN,14629.25,,,,,,,,,,Main,Other,-91.5337,48.0214,"[2016, 2023]",,,,,2802,remote,Res_M,2,,
739,,Winton,Minnesota,MN,29370.86351,,Main,,,Sec,,,,,,Hydroelectricity,-91.7304,48.0006,"[2016, 2023]",,,,,2811,remote,Res_M,2,,
740,Red Lake Reservoir,Lower Red Lake Dam,Minnesota,MN,3909592.62,,,Sec,Main,,,,,,,Flood control,-95.2722,47.956,"[1965, 2024]",785,usace,16194,"usace, resopsus",20760,"usace, resopsus",Res_R,3,0.576923125,-0.224410576
741,,Gabbro Lake 1,Minnesota,MN,16385.25163,,,,Main,Sec,,,,,,Flood control,-91.6104,47.8603,"[2016, 2023]",,,,,2806,remote,Res_M,2,,
742,,Deer Creek,Minnesota,MN,17412.49,,,,Main,,,,,,,Flood control,-93.3935,47.8433,"[2016, 2023]",,,,,2724,remote,Res_M,1,,
743,Devil Track Lake,Devils Track Lake,Minnesota,MN,96616.34567,,,,Main,,,,,,,Flood control,-90.3698,47.8191,"[2016, 2023]",,,,,2785,remote,Res_M,2,,
744,,Birch Lake,Minnesota,MN,79240.66,,,,Sec,Main,,Sec,,,,Recreation,-91.7849,47.8134,"[2004, 2023]",,,6270,resopsus,2827,remote,Res_L,2,0.799335072,0.026339583
745,,Clearwater,Minnesota,MN,15760.84994,,,,,,,,,,Main,Other,-95.2019,47.7355,"[2016, 2023]",,,,,2846,remote,Res_M,2,,
746,,Maple Lake,Minnesota,MN,16561.36,,,,Main,,,,,,,Flood control,-96.1323,47.6761,"[2016, 2023]",,,,,2848,remote,Res_M,1,,
747,,Sturgeon Lake,Minnesota,MN,23460.61262,,,,,Main,,,,,,Recreation,-93.0479,47.6692,"[2021, 2023]",,,,,681,remote,Res_M,2,,
748,,Wilson Lake,Minnesota,MN,9971.77,,,,,Main,,,,,,Recreation,-91.0662,47.6588,,,,,,,,Res_M,2,,
749,,Mintntac T,Minnesota,MN,92804.07,,,Sec,,,,,,,Main,Other,-92.6115,47.5967,"[2016, 2024]",,,783,matching,2812,remote,Res_L,2,0.238651645,-0.035470216
750,,Movil Lake,Minnesota,MN,19051.76,,,,,,,,,,Main,Other,-94.8373,47.596,,,,,,,,Res_M,4,,
751,,Balsam Lake,Minnesota,MN,13944.27,,,,,,,,,,Main,Other,-93.3948,47.5258,,,,,,,,Res_M,2,,
752,Hibtac Western,Western Hibtac,Minnesota,MN,75786.39458,,,,,,,,,,Main,Other,-92.9661,47.5259,"[2016, 2023]",,,,,2788,remote,Res_M,2,,
753,Lake Sakakawea,Garrison Dam,North Dakota,ND,29268898,Sec,Sec, ,Main,Sec,Sec, , , , ,Flood control,-101.4323,47.5061,"[1953, 2024]",25310,"usace, resopsus",25309,"hydroshare, resopsus, usace",20639,"hydroshare, resopsus, usace",Res_R,3,0.4032,0.0258
